{
"type": "FeatureCollection",
"name": "\/home\/arthur\/Desktop\/projects\/gtfs-importer-stl\/output\/unique_stops.geojson",
"crs": { "type": "name", "properties": { "name": "urn:ogc:def:crs:OGC:1.3:CRS84" } },
"features": [
{ "type": "Feature", "properties": { "stop_id": [ "J", "U", "I", "N", "1", "8", "4", "6", "3", "9", "2", ",", "A", "O", "U", "T", "1", "8", "4", "6", "3", "9", "2" ], "stop_code": [ "4", "6", "3", "9", "2" ], "stop_name": "René-Laennec \/ De Chaville", "stop_lon": -73.73178, "stop_lat": 45.626743, "location_type": 0, "stop_display": 0, "stop_abribus": 0 }, "geometry": { "type": "Point", "coordinates": [ -73.73178, 45.626743, 0.0 ] } },
{ "type": "Feature", "properties": { "stop_id": [ "J", "U", "I", "N", "1", "8", "4", "6", "2", "6", "6", ",", "A", "O", "U", "T", "1", "8", "4", "6", "2", "6", "6" ], "stop_code": [ "4", "6", "2", "6", "6" ], "stop_name": "Dagenais \/ William-Price", "stop_lon": -73.77499, "stop_lat": 45.583527, "location_type": 0, "stop_display": 0, "stop_abribus": 0 }, "geometry": { "type": "Point", "coordinates": [ -73.77499, 45.583527, 0.0 ] } },
{ "type": "Feature", "properties": { "stop_id": [ "A", "O", "U", "T", "1", "8", "4", "1", "4", "4", "4", ",", "J", "U", "I", "N", "1", "8", "4", "1", "4", "4", "4", ",", "A", "O", "U", "T", "1", "8", "C", "P", "4", "1", "4", "4", "4", ",", "J", "U", "I", "N", "1", "8", "C", "P", "4", "1", "4", "4", "4" ], "stop_code": [ "4", "1", "4", "4", "4" ], "stop_name": "Curé-Labelle \/ Saint-Elzéar", "stop_lon": -73.78139, "stop_lat": 45.568727, "location_type": 0, "stop_display": 0, "stop_abribus": 0 }, "geometry": { "type": "Point", "coordinates": [ -73.78139, 45.568727, 0.0 ] } },
{ "type": "Feature", "properties": { "stop_id": [ "A", "O", "U", "T", "1", "8", "4", "2", "4", "7", "2", ",", "J", "U", "I", "N", "1", "8", "4", "2", "4", "7", "2" ], "stop_code": [ "4", "2", "4", "7", "2" ], "stop_name": "Norman-Bethune \/ Montée Monette", "stop_lon": -73.70635, "stop_lat": 45.603369, "location_type": 0, "stop_display": 0, "stop_abribus": 1 }, "geometry": { "type": "Point", "coordinates": [ -73.70635, 45.603369, 0.0 ] } },
{ "type": "Feature", "properties": { "stop_id": [ "J", "U", "I", "N", "1", "8", "C", "P", "4", "1", "4", "2", "5", ",", "A", "O", "U", "T", "1", "8", "C", "P", "4", "1", "4", "2", "5" ], "stop_code": [ "4", "1", "4", "2", "5" ], "stop_name": "Curé-Labelle \/ Du Souvenir", "stop_lon": -73.75742, "stop_lat": 45.549078, "location_type": 0, "stop_display": 0, "stop_abribus": 1 }, "geometry": { "type": "Point", "coordinates": [ -73.75742, 45.549078, 0.0 ] } },
{ "type": "Feature", "properties": { "stop_id": [ "A", "O", "U", "T", "1", "8", "4", "2", "2", "7", "7", ",", "J", "U", "I", "N", "1", "8", "4", "2", "2", "7", "7" ], "stop_code": [ "4", "2", "2", "7", "7" ], "stop_name": "Des Mille-îles \/ Face Au 3165", "stop_lon": -73.70323, "stop_lat": 45.679383, "location_type": 0, "stop_display": 0, "stop_abribus": 0 }, "geometry": { "type": "Point", "coordinates": [ -73.70323, 45.679383, 0.0 ] } },
{ "type": "Feature", "properties": { "stop_id": [ "A", "O", "U", "T", "1", "8", "4", "2", "9", "8", "7", ",", "J", "U", "I", "N", "1", "8", "4", "2", "9", "8", "7" ], "stop_code": [ "4", "2", "9", "8", "7" ], "stop_name": "Sainte-Rose \/ 17e Avenue", "stop_lon": -73.87517, "stop_lat": 45.542354, "location_type": 0, "stop_display": 0, "stop_abribus": 0 }, "geometry": { "type": "Point", "coordinates": [ -73.87517, 45.542354, 0.0 ] } },
{ "type": "Feature", "properties": { "stop_id": [ "A", "O", "U", "T", "1", "8", "4", "6", "5", "0", "2", ",", "J", "U", "I", "N", "1", "8", "4", "6", "5", "0", "2" ], "stop_code": [ "4", "6", "5", "0", "2" ], "stop_name": "Jacques-Bureau \/ Face Au 3020", "stop_lon": -73.75726, "stop_lat": 45.574973, "location_type": 0, "stop_display": 0, "stop_abribus": 0 }, "geometry": { "type": "Point", "coordinates": [ -73.75726, 45.574973, 0.0 ] } },
{ "type": "Feature", "properties": { "stop_id": [ "J", "U", "I", "N", "1", "8", "C", "P", "4", "6", "1", "0", "0", ",", "A", "O", "U", "T", "1", "8", "C", "P", "4", "6", "1", "0", "0" ], "stop_code": [ "4", "6", "1", "0", "0" ], "stop_name": "Industriel \/ Berlier", "stop_lon": -73.73931, "stop_lat": 45.587981, "location_type": 0, "stop_display": 0, "stop_abribus": 0 }, "geometry": { "type": "Point", "coordinates": [ -73.73931, 45.587981, 0.0 ] } },
{ "type": "Feature", "properties": { "stop_id": [ "A", "O", "U", "T", "1", "8", "4", "1", "5", "3", "1", ",", "J", "U", "I", "N", "1", "8", "4", "1", "5", "3", "1" ], "stop_code": [ "4", "1", "5", "3", "1" ], "stop_name": "De La Renaissance \/ Antoine-Plamondon", "stop_lon": -73.79346, "stop_lat": 45.601334, "location_type": 0, "stop_display": 0, "stop_abribus": 0 }, "geometry": { "type": "Point", "coordinates": [ -73.79346, 45.601334, 0.0 ] } },
{ "type": "Feature", "properties": { "stop_id": [ "J", "U", "I", "N", "1", "8", "4", "2", "4", "9", "4", ",", "A", "O", "U", "T", "1", "8", "4", "2", "4", "9", "4" ], "stop_code": [ "4", "2", "4", "9", "4" ], "stop_name": "Notre-Dame \/ élisabeth", "stop_lon": -73.75924, "stop_lat": 45.537421, "location_type": 0, "stop_display": 0, "stop_abribus": 0 }, "geometry": { "type": "Point", "coordinates": [ -73.75924, 45.537421, 0.0 ] } },
{ "type": "Feature", "properties": { "stop_id": [ "J", "U", "I", "N", "1", "8", "4", "1", "4", "7", "0", ",", "A", "O", "U", "T", "1", "8", "4", "1", "4", "7", "0" ], "stop_code": [ "4", "1", "4", "7", "0" ], "stop_name": "Dagenais \/ Ingrid", "stop_lon": -73.81372, "stop_lat": 45.575007, "location_type": 0, "stop_display": 0, "stop_abribus": 0 }, "geometry": { "type": "Point", "coordinates": [ -73.81372, 45.575007, 0.0 ] } },
{ "type": "Feature", "properties": { "stop_id": [ "A", "O", "U", "T", "1", "8", "4", "2", "6", "2", "6", ",", "J", "U", "I", "N", "1", "8", "4", "2", "6", "2", "6" ], "stop_code": [ "4", "2", "6", "2", "6" ], "stop_name": "Prince-Rupert \/ Saint-Saens", "stop_lon": -73.75019, "stop_lat": 45.638069, "location_type": 0, "stop_display": 0, "stop_abribus": 0 }, "geometry": { "type": "Point", "coordinates": [ -73.75019, 45.638069, 0.0 ] } },
{ "type": "Feature", "properties": { "stop_id": [ "A", "O", "U", "T", "1", "8", "4", "1", "5", "3", "3", ",", "J", "U", "I", "N", "1", "8", "4", "1", "5", "3", "3" ], "stop_code": [ "4", "1", "5", "3", "3" ], "stop_name": "De La Renaissance \/ P.-é.-Borduas", "stop_lon": -73.79755, "stop_lat": 45.601211, "location_type": 0, "stop_display": 0, "stop_abribus": 1 }, "geometry": { "type": "Point", "coordinates": [ -73.79755, 45.601211, 0.0 ] } },
{ "type": "Feature", "properties": { "stop_id": [ "A", "O", "U", "T", "1", "8", "4", "6", "0", "1", "9", ",", "J", "U", "I", "N", "1", "8", "4", "6", "0", "1", "9" ], "stop_code": [ "4", "6", "0", "1", "9" ], "stop_name": "Notre-Dame \/ Face Au 2999", "stop_lon": -73.73359, "stop_lat": 45.548463, "location_type": 0, "stop_display": 0, "stop_abribus": 0 }, "geometry": { "type": "Point", "coordinates": [ -73.73359, 45.548463, 0.0 ] } },
{ "type": "Feature", "properties": { "stop_id": [ "J", "U", "I", "N", "1", "8", "4", "2", "5", "4", "7", ",", "A", "O", "U", "T", "1", "8", "4", "2", "5", "4", "7" ], "stop_code": [ "4", "2", "5", "4", "7" ], "stop_name": "Des Oiseaux \/ Des Tourterelles", "stop_lon": -73.7807, "stop_lat": 45.590361, "location_type": 0, "stop_display": 0, "stop_abribus": 0 }, "geometry": { "type": "Point", "coordinates": [ -73.7807, 45.590361, 0.0 ] } },
{ "type": "Feature", "properties": { "stop_id": [ "J", "U", "I", "N", "1", "8", "4", "2", "5", "7", "9", ",", "A", "O", "U", "T", "1", "8", "4", "2", "5", "7", "9" ], "stop_code": [ "4", "2", "5", "7", "9" ], "stop_name": "Des Patriotes \/ Nadon", "stop_lon": -73.7824, "stop_lat": 45.615129, "location_type": 0, "stop_display": 0, "stop_abribus": 0 }, "geometry": { "type": "Point", "coordinates": [ -73.7824, 45.615129, 0.0 ] } },
{ "type": "Feature", "properties": { "stop_id": [ "A", "O", "U", "T", "1", "8", "4", "2", "6", "6", "8", ",", "J", "U", "I", "N", "1", "8", "4", "2", "6", "6", "8" ], "stop_code": [ "4", "2", "6", "6", "8" ], "stop_name": "Principale \/ Face Au 1431", "stop_lon": -73.84233, "stop_lat": 45.535492, "location_type": 0, "stop_display": 0, "stop_abribus": 0 }, "geometry": { "type": "Point", "coordinates": [ -73.84233, 45.535492, 0.0 ] } },
{ "type": "Feature", "properties": { "stop_id": [ "A", "O", "U", "T", "1", "8", "4", "2", "6", "8", "3", ",", "J", "U", "I", "N", "1", "8", "4", "2", "6", "8", "3" ], "stop_code": [ "4", "2", "6", "8", "3" ], "stop_name": "Provence \/ Des Perron", "stop_lon": -73.74901, "stop_lat": 45.631494, "location_type": 0, "stop_display": 0, "stop_abribus": 0 }, "geometry": { "type": "Point", "coordinates": [ -73.74901, 45.631494, 0.0 ] } },
{ "type": "Feature", "properties": { "stop_id": [ "J", "U", "I", "N", "1", "8", "4", "2", "9", "3", "1", ",", "A", "O", "U", "T", "1", "8", "4", "2", "9", "3", "1" ], "stop_code": [ "4", "2", "9", "3", "1" ], "stop_name": "Sainte-Rose \/ 7e Avenue", "stop_lon": -73.87714, "stop_lat": 45.538532, "location_type": 0, "stop_display": 0, "stop_abribus": 0 }, "geometry": { "type": "Point", "coordinates": [ -73.87714, 45.538532, 0.0 ] } },
{ "type": "Feature", "properties": { "stop_id": [ "J", "U", "I", "N", "1", "8", "4", "1", "8", "4", "3", ",", "A", "O", "U", "T", "1", "8", "4", "1", "8", "4", "3" ], "stop_code": [ "4", "1", "8", "4", "3" ], "stop_name": "Des Laurentides \/ De Pise", "stop_lon": -73.73038, "stop_lat": 45.604601, "location_type": 0, "stop_display": 0, "stop_abribus": 0 }, "geometry": { "type": "Point", "coordinates": [ -73.73038, 45.604601, 0.0 ] } },
{ "type": "Feature", "properties": { "stop_id": [ "A", "O", "U", "T", "1", "8", "C", "P", "4", "2", "9", "5", "5", ",", "J", "U", "I", "N", "1", "8", "4", "2", "9", "5", "5", ",", "J", "U", "I", "N", "1", "8", "C", "P", "4", "2", "9", "5", "5", ",", "A", "O", "U", "T", "1", "8", "4", "2", "9", "5", "5" ], "stop_code": [ "4", "2", "9", "5", "5" ], "stop_name": "Sainte-Rose \/ Montée Sauriol", "stop_lon": -73.83435, "stop_lat": 45.569634, "location_type": 0, "stop_display": 0, "stop_abribus": 0 }, "geometry": { "type": "Point", "coordinates": [ -73.83435, 45.569634, 0.0 ] } },
{ "type": "Feature", "properties": { "stop_id": [ "J", "U", "I", "N", "1", "8", "C", "P", "4", "2", "5", "4", "1", ",", "A", "O", "U", "T", "1", "8", "C", "P", "4", "2", "5", "4", "1" ], "stop_code": [ "4", "2", "5", "4", "1" ], "stop_name": "Des Oiseaux \/ Curé-Labelle", "stop_lon": -73.78586, "stop_lat": 45.591887, "location_type": 0, "stop_display": 0, "stop_abribus": 0 }, "geometry": { "type": "Point", "coordinates": [ -73.78586, 45.591887, 0.0 ] } },
{ "type": "Feature", "properties": { "stop_id": [ "A", "O", "U", "T", "1", "8", "4", "2", "2", "6", "1", ",", "J", "U", "I", "N", "1", "8", "4", "2", "2", "6", "1" ], "stop_code": [ "4", "2", "2", "6", "1" ], "stop_name": "Des Mille-îles \/ Des Ormes", "stop_lon": -73.68491, "stop_lat": 45.68367, "location_type": 0, "stop_display": 0, "stop_abribus": 0 }, "geometry": { "type": "Point", "coordinates": [ -73.68491, 45.68367, 0.0 ] } },
{ "type": "Feature", "properties": { "stop_id": [ "A", "O", "U", "T", "1", "8", "4", "3", "0", "9", "6", ",", "J", "U", "I", "N", "1", "8", "4", "3", "0", "9", "6" ], "stop_code": [ "4", "3", "0", "9", "6" ], "stop_name": "Arthur-Sauvé \/ Antoine-Blondin", "stop_lon": -73.86224, "stop_lat": 45.545338, "location_type": 0, "stop_display": 0, "stop_abribus": 0 }, "geometry": { "type": "Point", "coordinates": [ -73.86224, 45.545338, 0.0 ] } },
{ "type": "Feature", "properties": { "stop_id": [ "A", "O", "U", "T", "1", "8", "4", "2", "7", "1", "1", ",", "J", "U", "I", "N", "1", "8", "4", "2", "7", "1", "1" ], "stop_code": [ "4", "2", "7", "1", "1" ], "stop_name": "René-Laennec \/ Dagenais", "stop_lon": -73.72095, "stop_lat": 45.610325, "location_type": 0, "stop_display": 0, "stop_abribus": 1 }, "geometry": { "type": "Point", "coordinates": [ -73.72095, 45.610325, 0.0 ] } },
{ "type": "Feature", "properties": { "stop_id": [ "A", "O", "U", "T", "1", "8", "4", "1", "8", "5", "8", ",", "J", "U", "I", "N", "1", "8", "4", "1", "8", "5", "8" ], "stop_code": [ "4", "1", "8", "5", "8" ], "stop_name": "Des Laurentides \/ Provence", "stop_lon": -73.7465, "stop_lat": 45.621637, "location_type": 0, "stop_display": 0, "stop_abribus": 0 }, "geometry": { "type": "Point", "coordinates": [ -73.7465, 45.621637, 0.0 ] } },
{ "type": "Feature", "properties": { "stop_id": [ "J", "U", "I", "N", "1", "8", "4", "2", "4", "3", "1", ",", "A", "O", "U", "T", "1", "8", "4", "2", "4", "3", "1" ], "stop_code": [ "4", "2", "4", "3", "1" ], "stop_name": "Montée Montrougeau \/ Marian", "stop_lon": -73.81409, "stop_lat": 45.579935, "location_type": 0, "stop_display": 0, "stop_abribus": 0 }, "geometry": { "type": "Point", "coordinates": [ -73.81409, 45.579935, 0.0 ] } },
{ "type": "Feature", "properties": { "stop_id": [ "J", "U", "I", "N", "1", "8", "C", "P", "4", "8", "9", "1", "3", ",", "A", "O", "U", "T", "1", "8", "C", "P", "4", "8", "9", "1", "3" ], "stop_code": [ "4", "8", "9", "1", "3" ], "stop_name": "Métro Montmorency", "stop_lon": -73.72102, "stop_lat": 45.558281, "location_type": 0, "stop_display": 0, "stop_abribus": 0 }, "geometry": { "type": "Point", "coordinates": [ -73.72102, 45.558281, 0.0 ] } },
{ "type": "Feature", "properties": { "stop_id": [ "J", "U", "I", "N", "1", "8", "4", "1", "8", "4", "1", ",", "A", "O", "U", "T", "1", "8", "4", "1", "8", "4", "1" ], "stop_code": [ "4", "1", "8", "4", "1" ], "stop_name": "Des Laurentides \/ De Pise", "stop_lon": -73.73015, "stop_lat": 45.604692, "location_type": 0, "stop_display": 0, "stop_abribus": 0 }, "geometry": { "type": "Point", "coordinates": [ -73.73015, 45.604692, 0.0 ] } },
{ "type": "Feature", "properties": { "stop_id": [ "A", "O", "U", "T", "1", "8", "4", "2", "4", "5", "9", ",", "J", "U", "I", "N", "1", "8", "4", "2", "4", "5", "9" ], "stop_code": [ "4", "2", "4", "5", "9" ], "stop_name": "Montée Du Moulin \/ Chartrand", "stop_lon": -73.57432, "stop_lat": 45.668562, "location_type": 0, "stop_display": 0, "stop_abribus": 0 }, "geometry": { "type": "Point", "coordinates": [ -73.57432, 45.668562, 0.0 ] } },
{ "type": "Feature", "properties": { "stop_id": [ "A", "O", "U", "T", "1", "8", "4", "1", "5", "1", "6", ",", "J", "U", "I", "N", "1", "8", "4", "1", "5", "1", "6" ], "stop_code": [ "4", "1", "5", "1", "6" ], "stop_name": "D'argenteuil \/ Montmorency", "stop_lon": -73.71671, "stop_lat": 45.553302, "location_type": 0, "stop_display": 0, "stop_abribus": 0 }, "geometry": { "type": "Point", "coordinates": [ -73.71671, 45.553302, 0.0 ] } },
{ "type": "Feature", "properties": { "stop_id": [ "A", "O", "U", "T", "1", "8", "4", "1", "3", "1", "1", ",", "J", "U", "I", "N", "1", "8", "4", "1", "3", "1", "1" ], "stop_code": [ "4", "1", "3", "1", "1" ], "stop_name": "Christiane \/ Gilles", "stop_lon": -73.81299, "stop_lat": 45.583862, "location_type": 0, "stop_display": 0, "stop_abribus": 0 }, "geometry": { "type": "Point", "coordinates": [ -73.81299, 45.583862, 0.0 ] } },
{ "type": "Feature", "properties": { "stop_id": [ "J", "U", "I", "N", "1", "8", "4", "2", "3", "3", "0", ",", "A", "O", "U", "T", "1", "8", "4", "2", "3", "3", "0" ], "stop_code": [ "4", "2", "3", "3", "0" ], "stop_name": "Des Mille-îles \/ Face Au 8980", "stop_lon": -73.5746, "stop_lat": 45.694323, "location_type": 0, "stop_display": 0, "stop_abribus": 0 }, "geometry": { "type": "Point", "coordinates": [ -73.5746, 45.694323, 0.0 ] } },
{ "type": "Feature", "properties": { "stop_id": [ "J", "U", "I", "N", "1", "8", "4", "2", "2", "1", "9", ",", "A", "O", "U", "T", "1", "8", "4", "2", "2", "1", "9" ], "stop_code": [ "4", "2", "2", "1", "9" ], "stop_name": "Montée Masson \/ Beaumont", "stop_lon": -73.62682, "stop_lat": 45.683506, "location_type": 0, "stop_display": 0, "stop_abribus": 0 }, "geometry": { "type": "Point", "coordinates": [ -73.62682, 45.683506, 0.0 ] } },
{ "type": "Feature", "properties": { "stop_id": [ "J", "U", "I", "N", "1", "8", "4", "6", "4", "3", "9", ",", "A", "O", "U", "T", "1", "8", "4", "6", "4", "3", "9" ], "stop_code": [ "4", "6", "4", "3", "9" ], "stop_name": "Principale \/ Face Au 180", "stop_lon": -73.80021, "stop_lat": 45.535089, "location_type": 0, "stop_display": 0, "stop_abribus": 0 }, "geometry": { "type": "Point", "coordinates": [ -73.80021, 45.535089, 0.0 ] } },
{ "type": "Feature", "properties": { "stop_id": [ "J", "U", "I", "N", "1", "8", "4", "1", "1", "0", "1", ",", "A", "O", "U", "T", "1", "8", "4", "1", "1", "0", "1" ], "stop_code": [ "4", "1", "1", "0", "1" ], "stop_name": "Belleville \/ Saint-Germain", "stop_lon": -73.6516, "stop_lat": 45.61114, "location_type": 0, "stop_display": 0, "stop_abribus": 1 }, "geometry": { "type": "Point", "coordinates": [ -73.6516, 45.61114, 0.0 ] } },
{ "type": "Feature", "properties": { "stop_id": [ "J", "U", "I", "N", "1", "8", "4", "2", "4", "9", "5", ",", "A", "O", "U", "T", "1", "8", "4", "2", "4", "9", "5" ], "stop_code": [ "4", "2", "4", "9", "5" ], "stop_name": "Notre-Dame \/ Face Au 4557", "stop_lon": -73.76274, "stop_lat": 45.536927, "location_type": 0, "stop_display": 0, "stop_abribus": 0 }, "geometry": { "type": "Point", "coordinates": [ -73.76274, 45.536927, 0.0 ] } },
{ "type": "Feature", "properties": { "stop_id": [ "J", "U", "I", "N", "1", "8", "4", "2", "6", "3", "7", ",", "A", "O", "U", "T", "1", "8", "4", "2", "6", "3", "7" ], "stop_code": [ "4", "2", "6", "3", "7" ], "stop_name": "Prince-Rupert \/ Pageau", "stop_lon": -73.7495, "stop_lat": 45.635821, "location_type": 0, "stop_display": 0, "stop_abribus": 0 }, "geometry": { "type": "Point", "coordinates": [ -73.7495, 45.635821, 0.0 ] } },
{ "type": "Feature", "properties": { "stop_id": [ "A", "O", "U", "T", "1", "8", "4", "6", "1", "7", "1", ",", "J", "U", "I", "N", "1", "8", "4", "6", "1", "7", "1" ], "stop_code": [ "4", "6", "1", "7", "1" ], "stop_name": "Des Rossignols \/ Du Passerin", "stop_lon": -73.77436, "stop_lat": 45.602686, "location_type": 0, "stop_display": 0, "stop_abribus": 0 }, "geometry": { "type": "Point", "coordinates": [ -73.77436, 45.602686, 0.0 ] } },
{ "type": "Feature", "properties": { "stop_id": [ "J", "U", "I", "N", "1", "8", "4", "2", "3", "6", "0", ",", "A", "O", "U", "T", "1", "8", "4", "2", "3", "6", "0" ], "stop_code": [ "4", "2", "3", "6", "0" ], "stop_name": "Des Mille-îles \/ Réaume", "stop_lon": -73.61469, "stop_lat": 45.69177, "location_type": 0, "stop_display": 0, "stop_abribus": 0 }, "geometry": { "type": "Point", "coordinates": [ -73.61469, 45.69177, 0.0 ] } },
{ "type": "Feature", "properties": { "stop_id": [ "J", "U", "I", "N", "1", "8", "4", "1", "8", "4", "0", ",", "A", "O", "U", "T", "1", "8", "4", "1", "8", "4", "0" ], "stop_code": [ "4", "1", "8", "4", "0" ], "stop_name": "Des Laurentides \/ De Rotterdam", "stop_lon": -73.7234, "stop_lat": 45.5981, "location_type": 0, "stop_display": 1, "stop_abribus": 1 }, "geometry": { "type": "Point", "coordinates": [ -73.7234, 45.5981, 0.0 ] } },
{ "type": "Feature", "properties": { "stop_id": [ "A", "O", "U", "T", "1", "8", "4", "2", "8", "4", "0", ",", "J", "U", "I", "N", "1", "8", "C", "P", "4", "2", "8", "4", "0", ",", "J", "U", "I", "N", "1", "8", "4", "2", "8", "4", "0", ",", "A", "O", "U", "T", "1", "8", "C", "P", "4", "2", "8", "4", "0" ], "stop_code": [ "4", "2", "8", "4", "0" ], "stop_name": "Saint-Martin \/ Mcnamara", "stop_lon": -73.72272, "stop_lat": 45.570918, "location_type": 0, "stop_display": 1, "stop_abribus": 1 }, "geometry": { "type": "Point", "coordinates": [ -73.72272, 45.570918, 0.0 ] } },
{ "type": "Feature", "properties": { "stop_id": [ "J", "U", "I", "N", "1", "8", "4", "1", "4", "1", "3", ",", "A", "O", "U", "T", "1", "8", "4", "1", "4", "1", "3" ], "stop_code": [ "4", "1", "4", "1", "3" ], "stop_name": "Curé-Labelle \/ Perron", "stop_lon": -73.74602, "stop_lat": 45.538575, "location_type": 0, "stop_display": 0, "stop_abribus": 1 }, "geometry": { "type": "Point", "coordinates": [ -73.74602, 45.538575, 0.0 ] } },
{ "type": "Feature", "properties": { "stop_id": [ "A", "O", "U", "T", "1", "8", "4", "2", "5", "3", "7", ",", "J", "U", "I", "N", "1", "8", "4", "2", "5", "3", "7" ], "stop_code": [ "4", "2", "5", "3", "7" ], "stop_name": "Des Oiseaux \/ Du Rouge-Gorge", "stop_lon": -73.77835, "stop_lat": 45.586459, "location_type": 0, "stop_display": 0, "stop_abribus": 0 }, "geometry": { "type": "Point", "coordinates": [ -73.77835, 45.586459, 0.0 ] } },
{ "type": "Feature", "properties": { "stop_id": [ "A", "O", "U", "T", "1", "8", "4", "1", "3", "1", "8", ",", "J", "U", "I", "N", "1", "8", "4", "1", "3", "1", "8" ], "stop_code": [ "4", "1", "3", "1", "8" ], "stop_name": "Cléroux \/ Gingras", "stop_lon": -73.77467, "stop_lat": 45.560196, "location_type": 0, "stop_display": 0, "stop_abribus": 0 }, "geometry": { "type": "Point", "coordinates": [ -73.77467, 45.560196, 0.0 ] } },
{ "type": "Feature", "properties": { "stop_id": [ "A", "O", "U", "T", "1", "8", "4", "2", "1", "3", "2", ",", "J", "U", "I", "N", "1", "8", "4", "2", "1", "3", "2" ], "stop_code": [ "4", "2", "1", "3", "2" ], "stop_name": "Lévesque \/ Face Au 6644", "stop_lon": -73.62779, "stop_lat": 45.636859, "location_type": 0, "stop_display": 0, "stop_abribus": 0 }, "geometry": { "type": "Point", "coordinates": [ -73.62779, 45.636859, 0.0 ] } },
{ "type": "Feature", "properties": { "stop_id": [ "J", "U", "I", "N", "1", "8", "4", "1", "5", "1", "8", ",", "A", "O", "U", "T", "1", "8", "4", "1", "5", "1", "8" ], "stop_code": [ "4", "1", "5", "1", "8" ], "stop_name": "D'argenteuil \/ Desmarteau", "stop_lon": -73.71406, "stop_lat": 45.554899, "location_type": 0, "stop_display": 0, "stop_abribus": 0 }, "geometry": { "type": "Point", "coordinates": [ -73.71406, 45.554899, 0.0 ] } },
{ "type": "Feature", "properties": { "stop_id": [ "J", "U", "I", "N", "1", "8", "4", "1", "3", "0", "1", ",", "J", "U", "I", "N", "1", "8", "C", "P", "4", "1", "3", "0", "1", ",", "A", "O", "U", "T", "1", "8", "4", "1", "3", "0", "1", ",", "A", "O", "U", "T", "1", "8", "C", "P", "4", "1", "3", "0", "1" ], "stop_code": [ "4", "1", "3", "0", "1" ], "stop_name": "Chomedey \/ Notre-Dame", "stop_lon": -73.73935, "stop_lat": 45.54469, "location_type": 0, "stop_display": 0, "stop_abribus": 1 }, "geometry": { "type": "Point", "coordinates": [ -73.73935, 45.54469, 0.0 ] } },
{ "type": "Feature", "properties": { "stop_id": [ "A", "O", "U", "T", "1", "8", "C", "P", "4", "7", "1", "3", "1", ",", "J", "U", "I", "N", "1", "8", "C", "P", "4", "7", "1", "3", "1" ], "stop_code": [ "4", "7", "1", "3", "1" ], "stop_name": "Métro Cartier Quai:5", "stop_lon": -73.68308, "stop_lat": 45.559637, "location_type": 0, "stop_display": 0, "stop_abribus": 0 }, "geometry": { "type": "Point", "coordinates": [ -73.68308, 45.559637, 0.0 ] } },
{ "type": "Feature", "properties": { "stop_id": [ "J", "U", "I", "N", "1", "8", "4", "3", "1", "1", "5", ",", "A", "O", "U", "T", "1", "8", "4", "3", "1", "1", "5" ], "stop_code": [ "4", "3", "1", "1", "5" ], "stop_name": "Du Souvenir \/ Léo", "stop_lon": -73.76448, "stop_lat": 45.543222, "location_type": 0, "stop_display": 0, "stop_abribus": 0 }, "geometry": { "type": "Point", "coordinates": [ -73.76448, 45.543222, 0.0 ] } },
{ "type": "Feature", "properties": { "stop_id": [ "J", "U", "I", "N", "1", "8", "4", "3", "1", "9", "9", ",", "A", "O", "U", "T", "1", "8", "4", "3", "1", "9", "9" ], "stop_code": [ "4", "3", "1", "9", "9" ], "stop_name": "Tourangeau \/ Lahaie", "stop_lon": -73.68411, "stop_lat": 45.566622, "location_type": 0, "stop_display": 0, "stop_abribus": 0 }, "geometry": { "type": "Point", "coordinates": [ -73.68411, 45.566622, 0.0 ] } },
{ "type": "Feature", "properties": { "stop_id": [ "J", "U", "I", "N", "1", "8", "4", "6", "2", "0", "0", ",", "A", "O", "U", "T", "1", "8", "4", "6", "2", "0", "0" ], "stop_code": [ "4", "6", "2", "0", "0" ], "stop_name": "Des Rossignols \/ Du Passerin", "stop_lon": -73.77412, "stop_lat": 45.602561, "location_type": 0, "stop_display": 0, "stop_abribus": 0 }, "geometry": { "type": "Point", "coordinates": [ -73.77412, 45.602561, 0.0 ] } },
{ "type": "Feature", "properties": { "stop_id": [ "A", "O", "U", "T", "1", "8", "4", "3", "1", "7", "1", ",", "J", "U", "I", "N", "1", "8", "4", "3", "1", "7", "1" ], "stop_code": [ "4", "3", "1", "7", "1" ], "stop_name": "Des Terrasses \/ Sanscartier", "stop_lon": -73.7621, "stop_lat": 45.637124, "location_type": 0, "stop_display": 0, "stop_abribus": 0 }, "geometry": { "type": "Point", "coordinates": [ -73.7621, 45.637124, 0.0 ] } },
{ "type": "Feature", "properties": { "stop_id": [ "J", "U", "I", "N", "1", "8", "4", "1", "3", "8", "1", ",", "A", "O", "U", "T", "1", "8", "4", "1", "3", "8", "1" ], "stop_code": [ "4", "1", "3", "8", "1" ], "stop_name": "De La Concorde \/ Beaugrand", "stop_lon": -73.66102, "stop_lat": 45.595578, "location_type": 0, "stop_display": 0, "stop_abribus": 0 }, "geometry": { "type": "Point", "coordinates": [ -73.66102, 45.595578, 0.0 ] } },
{ "type": "Feature", "properties": { "stop_id": [ "A", "O", "U", "T", "1", "8", "4", "1", "8", "9", "4", ",", "J", "U", "I", "N", "1", "8", "4", "1", "8", "9", "4" ], "stop_code": [ "4", "1", "8", "9", "4" ], "stop_name": "Laurentien \/ Gouin Ouest", "stop_lon": -73.72309, "stop_lat": 45.529446, "location_type": 0, "stop_display": 0, "stop_abribus": 0 }, "geometry": { "type": "Point", "coordinates": [ -73.72309, 45.529446, 0.0 ] } },
{ "type": "Feature", "properties": { "stop_id": [ "J", "U", "I", "N", "1", "8", "4", "6", "4", "7", "0", ",", "A", "O", "U", "T", "1", "8", "4", "6", "4", "7", "0" ], "stop_code": [ "4", "6", "4", "7", "0" ], "stop_name": "Le Carrefour \/ Face Au 3030", "stop_lon": -73.75052, "stop_lat": 45.567593, "location_type": 0, "stop_display": 0, "stop_abribus": 0 }, "geometry": { "type": "Point", "coordinates": [ -73.75052, 45.567593, 0.0 ] } },
{ "type": "Feature", "properties": { "stop_id": [ "J", "U", "I", "N", "1", "8", "4", "6", "0", "8", "8", ",", "A", "O", "U", "T", "1", "8", "4", "6", "0", "8", "8" ], "stop_code": [ "4", "6", "0", "8", "8" ], "stop_name": "Industriel \/ Face Au 4133", "stop_lon": -73.75283, "stop_lat": 45.59997, "location_type": 0, "stop_display": 0, "stop_abribus": 0 }, "geometry": { "type": "Point", "coordinates": [ -73.75283, 45.59997, 0.0 ] } },
{ "type": "Feature", "properties": { "stop_id": [ "A", "O", "U", "T", "1", "8", "4", "1", "2", "7", "8", ",", "J", "U", "I", "N", "1", "8", "4", "1", "2", "7", "8" ], "stop_code": [ "4", "1", "2", "7", "8" ], "stop_name": "Des Châteaux \/ Daniel-Johnson", "stop_lon": -73.74377, "stop_lat": 45.556144, "location_type": 0, "stop_display": 0, "stop_abribus": 0 }, "geometry": { "type": "Point", "coordinates": [ -73.74377, 45.556144, 0.0 ] } },
{ "type": "Feature", "properties": { "stop_id": [ "J", "U", "I", "N", "1", "8", "C", "P", "4", "9", "0", "6", "3", ",", "A", "O", "U", "T", "1", "8", "C", "P", "4", "9", "0", "6", "3" ], "stop_code": [ "4", "9", "0", "6", "3" ], "stop_name": "Gare Sainte-Rose", "stop_lon": -73.76582, "stop_lat": 45.625788, "location_type": 0, "stop_display": 0, "stop_abribus": 0 }, "geometry": { "type": "Point", "coordinates": [ -73.76582, 45.625788, 0.0 ] } },
{ "type": "Feature", "properties": { "stop_id": [ "A", "O", "U", "T", "1", "8", "4", "1", "0", "1", "2", ",", "J", "U", "I", "N", "1", "8", "4", "1", "0", "1", "2" ], "stop_code": [ "4", "1", "0", "1", "2" ], "stop_name": "René-Laennec \/ Prudentiel", "stop_lon": -73.7297, "stop_lat": 45.624966, "location_type": 0, "stop_display": 0, "stop_abribus": 0 }, "geometry": { "type": "Point", "coordinates": [ -73.7297, 45.624966, 0.0 ] } },
{ "type": "Feature", "properties": { "stop_id": [ "A", "O", "U", "T", "1", "8", "4", "6", "1", "2", "9", ",", "J", "U", "I", "N", "1", "8", "4", "6", "1", "2", "9" ], "stop_code": [ "4", "6", "1", "2", "9" ], "stop_name": "Dagenais \/ Montée Sauriol", "stop_lon": -73.829, "stop_lat": 45.563417, "location_type": 0, "stop_display": 0, "stop_abribus": 0 }, "geometry": { "type": "Point", "coordinates": [ -73.829, 45.563417, 0.0 ] } },
{ "type": "Feature", "properties": { "stop_id": [ "A", "O", "U", "T", "1", "8", "4", "3", "0", "5", "3", ",", "J", "U", "I", "N", "1", "8", "4", "3", "0", "5", "3" ], "stop_code": [ "4", "3", "0", "5", "3" ], "stop_name": "Samson \/ 1ère Rue", "stop_lon": -73.7575, "stop_lat": 45.529056, "location_type": 0, "stop_display": 0, "stop_abribus": 0 }, "geometry": { "type": "Point", "coordinates": [ -73.7575, 45.529056, 0.0 ] } },
{ "type": "Feature", "properties": { "stop_id": [ "A", "O", "U", "T", "1", "8", "4", "2", "5", "2", "9", ",", "J", "U", "I", "N", "1", "8", "4", "2", "5", "2", "9" ], "stop_code": [ "4", "2", "5", "2", "9" ], "stop_name": "Notre-Dame-De-Fatima \/ De Brouage", "stop_lon": -73.6841, "stop_lat": 45.581335, "location_type": 0, "stop_display": 0, "stop_abribus": 0 }, "geometry": { "type": "Point", "coordinates": [ -73.6841, 45.581335, 0.0 ] } },
{ "type": "Feature", "properties": { "stop_id": [ "A", "O", "U", "T", "1", "8", "C", "P", "4", "6", "2", "6", "0", ",", "J", "U", "I", "N", "1", "8", "C", "P", "4", "6", "2", "6", "0" ], "stop_code": [ "4", "6", "2", "6", "0" ], "stop_name": "Notre-Dame-De-Fatima \/ Saint-Martin", "stop_lon": -73.69469, "stop_lat": 45.590828, "location_type": 0, "stop_display": 0, "stop_abribus": 1 }, "geometry": { "type": "Point", "coordinates": [ -73.69469, 45.590828, 0.0 ] } },
{ "type": "Feature", "properties": { "stop_id": [ "A", "O", "U", "T", "1", "8", "4", "1", "5", "1", "1", ",", "J", "U", "I", "N", "1", "8", "4", "1", "5", "1", "1" ], "stop_code": [ "4", "1", "5", "1", "1" ], "stop_name": "Daniel-Johnson \/ Face Au 2540", "stop_lon": -73.75594, "stop_lat": 45.56742, "location_type": 0, "stop_display": 0, "stop_abribus": 0 }, "geometry": { "type": "Point", "coordinates": [ -73.75594, 45.56742, 0.0 ] } },
{ "type": "Feature", "properties": { "stop_id": [ "A", "O", "U", "T", "1", "8", "4", "1", "1", "5", "6", ",", "J", "U", "I", "N", "1", "8", "4", "1", "1", "5", "6" ], "stop_code": [ "4", "1", "1", "5", "6" ], "stop_name": "Du Bord-De-L'eau \/ Face Au 300", "stop_lon": -73.78952, "stop_lat": 45.518172, "location_type": 0, "stop_display": 0, "stop_abribus": 0 }, "geometry": { "type": "Point", "coordinates": [ -73.78952, 45.518172, 0.0 ] } },
{ "type": "Feature", "properties": { "stop_id": [ "A", "O", "U", "T", "1", "8", "C", "P", "4", "7", "1", "2", "4", ",", "J", "U", "I", "N", "1", "8", "C", "P", "4", "7", "1", "2", "4" ], "stop_code": [ "4", "7", "1", "2", "4" ], "stop_name": "Métro Cartier", "stop_lon": -73.68237, "stop_lat": 45.560049, "location_type": 0, "stop_display": 0, "stop_abribus": 0 }, "geometry": { "type": "Point", "coordinates": [ -73.68237, 45.560049, 0.0 ] } },
{ "type": "Feature", "properties": { "stop_id": [ "J", "U", "I", "N", "1", "8", "4", "1", "1", "2", "7", ",", "A", "O", "U", "T", "1", "8", "4", "1", "1", "2", "7" ], "stop_code": [ "4", "1", "1", "2", "7" ], "stop_name": "Berlier \/ Industriel", "stop_lon": -73.73892, "stop_lat": 45.588288, "location_type": 0, "stop_display": 0, "stop_abribus": 1 }, "geometry": { "type": "Point", "coordinates": [ -73.73892, 45.588288, 0.0 ] } },
{ "type": "Feature", "properties": { "stop_id": [ "J", "U", "I", "N", "1", "8", "C", "P", "4", "1", "7", "5", "2", ",", "A", "O", "U", "T", "1", "8", "C", "P", "4", "1", "7", "5", "2" ], "stop_code": [ "4", "1", "7", "5", "2" ], "stop_name": "Ingrid \/ Dagenais", "stop_lon": -73.81344, "stop_lat": 45.57479, "location_type": 0, "stop_display": 0, "stop_abribus": 1 }, "geometry": { "type": "Point", "coordinates": [ -73.81344, 45.57479, 0.0 ] } },
{ "type": "Feature", "properties": { "stop_id": [ "J", "U", "I", "N", "1", "8", "4", "3", "1", "9", "0", ",", "A", "O", "U", "T", "1", "8", "4", "3", "1", "9", "0" ], "stop_code": [ "4", "3", "1", "9", "0" ], "stop_name": "De Touraine \/ De Bois-De-Boulogne", "stop_lon": -73.70671, "stop_lat": 45.573908, "location_type": 0, "stop_display": 0, "stop_abribus": 0 }, "geometry": { "type": "Point", "coordinates": [ -73.70671, 45.573908, 0.0 ] } },
{ "type": "Feature", "properties": { "stop_id": [ "A", "O", "U", "T", "1", "8", "4", "1", "4", "6", "3", ",", "J", "U", "I", "N", "1", "8", "4", "1", "4", "6", "3" ], "stop_code": [ "4", "1", "4", "6", "3" ], "stop_name": "Curé-Labelle \/ 80e Avenue", "stop_lon": -73.7417, "stop_lat": 45.537177, "location_type": 0, "stop_display": 0, "stop_abribus": 1 }, "geometry": { "type": "Point", "coordinates": [ -73.7417, 45.537177, 0.0 ] } },
{ "type": "Feature", "properties": { "stop_id": [ "A", "O", "U", "T", "1", "8", "4", "2", "6", "1", "7", ",", "J", "U", "I", "N", "1", "8", "4", "2", "6", "1", "7" ], "stop_code": [ "4", "2", "6", "1", "7" ], "stop_name": "Des Prairies \/ Talbot", "stop_lon": -73.68053, "stop_lat": 45.555544, "location_type": 0, "stop_display": 0, "stop_abribus": 0 }, "geometry": { "type": "Point", "coordinates": [ -73.68053, 45.555544, 0.0 ] } },
{ "type": "Feature", "properties": { "stop_id": [ "A", "O", "U", "T", "1", "8", "4", "2", "3", "9", "6", ",", "J", "U", "I", "N", "1", "8", "4", "2", "3", "9", "6" ], "stop_code": [ "4", "2", "3", "9", "6" ], "stop_name": "Des Mille-îles \/ Maurice", "stop_lon": -73.66166, "stop_lat": 45.683516, "location_type": 0, "stop_display": 0, "stop_abribus": 0 }, "geometry": { "type": "Point", "coordinates": [ -73.66166, 45.683516, 0.0 ] } },
{ "type": "Feature", "properties": { "stop_id": [ "A", "O", "U", "T", "1", "8", "4", "1", "0", "8", "4", ",", "J", "U", "I", "N", "1", "8", "4", "1", "0", "8", "4" ], "stop_code": [ "4", "1", "0", "8", "4" ], "stop_name": "Bellerose \/ René-Laennec", "stop_lon": -73.72423, "stop_lat": 45.619218, "location_type": 0, "stop_display": 0, "stop_abribus": 1 }, "geometry": { "type": "Point", "coordinates": [ -73.72423, 45.619218, 0.0 ] } },
{ "type": "Feature", "properties": { "stop_id": [ "J", "U", "I", "N", "1", "8", "4", "3", "1", "0", "4", ",", "A", "O", "U", "T", "1", "8", "4", "3", "1", "0", "4" ], "stop_code": [ "4", "3", "1", "0", "4" ], "stop_name": "Séguin \/ 37e Avenue", "stop_lon": -73.84223, "stop_lat": 45.57145, "location_type": 0, "stop_display": 0, "stop_abribus": 0 }, "geometry": { "type": "Point", "coordinates": [ -73.84223, 45.57145, 0.0 ] } },
{ "type": "Feature", "properties": { "stop_id": [ "J", "U", "I", "N", "1", "8", "C", "P", "4", "1", "6", "9", "7", ",", "A", "O", "U", "T", "1", "8", "C", "P", "4", "1", "6", "9", "7" ], "stop_code": [ "4", "1", "6", "9", "7" ], "stop_name": "Gravel \/ Samson", "stop_lon": -73.81747, "stop_lat": 45.524955, "location_type": 0, "stop_display": 0, "stop_abribus": 0 }, "geometry": { "type": "Point", "coordinates": [ -73.81747, 45.524955, 0.0 ] } },
{ "type": "Feature", "properties": { "stop_id": [ "J", "U", "I", "N", "1", "8", "C", "P", "4", "1", "0", "7", "1", ",", "A", "O", "U", "T", "1", "8", "C", "P", "4", "1", "0", "7", "1" ], "stop_code": [ "4", "1", "0", "7", "1" ], "stop_name": "De Belgrade \/ Des Laurentides", "stop_lon": -73.73996, "stop_lat": 45.615586, "location_type": 0, "stop_display": 0, "stop_abribus": 0 }, "geometry": { "type": "Point", "coordinates": [ -73.73996, 45.615586, 0.0 ] } },
{ "type": "Feature", "properties": { "stop_id": [ "J", "U", "I", "N", "1", "8", "4", "3", "1", "5", "0", ",", "A", "O", "U", "T", "1", "8", "4", "3", "1", "5", "0" ], "stop_code": [ "4", "3", "1", "5", "0" ], "stop_name": "Du Souvenir \/ Châtelaine", "stop_lon": -73.77507, "stop_lat": 45.535494, "location_type": 0, "stop_display": 0, "stop_abribus": 0 }, "geometry": { "type": "Point", "coordinates": [ -73.77507, 45.535494, 0.0 ] } },
{ "type": "Feature", "properties": { "stop_id": [ "A", "O", "U", "T", "1", "8", "4", "2", "6", "9", "5", ",", "J", "U", "I", "N", "1", "8", "4", "2", "6", "9", "5" ], "stop_code": [ "4", "2", "6", "9", "5" ], "stop_name": "Prudentiel \/ De Belgrade", "stop_lon": -73.73577, "stop_lat": 45.61789, "location_type": 0, "stop_display": 0, "stop_abribus": 0 }, "geometry": { "type": "Point", "coordinates": [ -73.73577, 45.61789, 0.0 ] } },
{ "type": "Feature", "properties": { "stop_id": [ "A", "O", "U", "T", "1", "8", "4", "1", "2", "4", "3", ",", "J", "U", "I", "N", "1", "8", "4", "1", "2", "4", "3" ], "stop_code": [ "4", "1", "2", "4", "3" ], "stop_name": "Cartier \/ Verdi", "stop_lon": -73.71555, "stop_lat": 45.548022, "location_type": 0, "stop_display": 0, "stop_abribus": 0 }, "geometry": { "type": "Point", "coordinates": [ -73.71555, 45.548022, 0.0 ] } },
{ "type": "Feature", "properties": { "stop_id": [ "J", "U", "I", "N", "1", "8", "C", "P", "4", "1", "9", "5", "5", ",", "A", "O", "U", "T", "1", "8", "C", "P", "4", "1", "9", "5", "5" ], "stop_code": [ "4", "1", "9", "5", "5" ], "stop_name": "Le Corbusier \/ Saint-Elzéar", "stop_lon": -73.74961, "stop_lat": 45.583068, "location_type": 0, "stop_display": 1, "stop_abribus": 1 }, "geometry": { "type": "Point", "coordinates": [ -73.74961, 45.583068, 0.0 ] } },
{ "type": "Feature", "properties": { "stop_id": [ "J", "U", "I", "N", "1", "8", "4", "2", "8", "8", "2", ",", "A", "O", "U", "T", "1", "8", "4", "2", "8", "8", "2" ], "stop_code": [ "4", "2", "8", "8", "2" ], "stop_name": "Saint-Martin \/ Face Au 4940", "stop_lon": -73.78151, "stop_lat": 45.545218, "location_type": 0, "stop_display": 0, "stop_abribus": 0 }, "geometry": { "type": "Point", "coordinates": [ -73.78151, 45.545218, 0.0 ] } },
{ "type": "Feature", "properties": { "stop_id": [ "J", "U", "I", "N", "1", "8", "C", "P", "4", "1", "0", "0", "4", ",", "A", "O", "U", "T", "1", "8", "C", "P", "4", "1", "0", "0", "4" ], "stop_code": [ "4", "1", "0", "0", "4" ], "stop_name": "De Langeais \/ De Gascogne", "stop_lon": -73.71004, "stop_lat": 45.576809, "location_type": 0, "stop_display": 0, "stop_abribus": 0 }, "geometry": { "type": "Point", "coordinates": [ -73.71004, 45.576809, 0.0 ] } },
{ "type": "Feature", "properties": { "stop_id": [ "J", "U", "I", "N", "1", "8", "4", "2", "7", "0", "6", ",", "A", "O", "U", "T", "1", "8", "4", "2", "7", "0", "6" ], "stop_code": [ "4", "2", "7", "0", "6" ], "stop_name": "René-Laennec \/ Des Grisons", "stop_lon": -73.72348, "stop_lat": 45.614135, "location_type": 0, "stop_display": 0, "stop_abribus": 0 }, "geometry": { "type": "Point", "coordinates": [ -73.72348, 45.614135, 0.0 ] } },
{ "type": "Feature", "properties": { "stop_id": [ "J", "U", "I", "N", "1", "8", "4", "1", "2", "7", "6", ",", "A", "O", "U", "T", "1", "8", "4", "1", "2", "7", "6" ], "stop_code": [ "4", "1", "2", "7", "6" ], "stop_name": "Des Châteaux \/ Face Au 3275", "stop_lon": -73.74595, "stop_lat": 45.554934, "location_type": 0, "stop_display": 0, "stop_abribus": 1 }, "geometry": { "type": "Point", "coordinates": [ -73.74595, 45.554934, 0.0 ] } },
{ "type": "Feature", "properties": { "stop_id": [ "J", "U", "I", "N", "1", "8", "4", "5", "0", "2", "2", ",", "A", "O", "U", "T", "1", "8", "4", "5", "0", "2", "2" ], "stop_code": [ "4", "5", "0", "2", "2" ], "stop_name": "Dagenais \/ Garand", "stop_lon": -73.75778, "stop_lat": 45.593025, "location_type": 0, "stop_display": 0, "stop_abribus": 0 }, "geometry": { "type": "Point", "coordinates": [ -73.75778, 45.593025, 0.0 ] } },
{ "type": "Feature", "properties": { "stop_id": [ "A", "O", "U", "T", "1", "8", "4", "2", "6", "4", "2", ",", "J", "U", "I", "N", "1", "8", "4", "2", "6", "4", "2" ], "stop_code": [ "4", "2", "6", "4", "2" ], "stop_name": "Principale \/ Duprat", "stop_lon": -73.81293, "stop_lat": 45.531383, "location_type": 0, "stop_display": 0, "stop_abribus": 0 }, "geometry": { "type": "Point", "coordinates": [ -73.81293, 45.531383, 0.0 ] } },
{ "type": "Feature", "properties": { "stop_id": [ "J", "U", "I", "N", "1", "8", "4", "2", "6", "9", "8", ",", "A", "O", "U", "T", "1", "8", "4", "2", "6", "9", "8" ], "stop_code": [ "4", "2", "6", "9", "8" ], "stop_name": "Prudentiel \/ Casault", "stop_lon": -73.73462, "stop_lat": 45.620069, "location_type": 0, "stop_display": 0, "stop_abribus": 0 }, "geometry": { "type": "Point", "coordinates": [ -73.73462, 45.620069, 0.0 ] } },
{ "type": "Feature", "properties": { "stop_id": [ "A", "O", "U", "T", "1", "8", "4", "2", "5", "7", "6", ",", "J", "U", "I", "N", "1", "8", "4", "2", "5", "7", "6" ], "stop_code": [ "4", "2", "5", "7", "6" ], "stop_name": "Des Patriotes \/ Je-Me-Souviens", "stop_lon": -73.78134, "stop_lat": 45.611794, "location_type": 0, "stop_display": 0, "stop_abribus": 0 }, "geometry": { "type": "Point", "coordinates": [ -73.78134, 45.611794, 0.0 ] } },
{ "type": "Feature", "properties": { "stop_id": [ "J", "U", "I", "N", "1", "8", "4", "3", "0", "9", "7", ",", "A", "O", "U", "T", "1", "8", "4", "3", "0", "9", "7" ], "stop_code": [ "4", "3", "0", "9", "7" ], "stop_name": "Arthur-Sauvé \/ Duhamel", "stop_lon": -73.86373, "stop_lat": 45.547034, "location_type": 0, "stop_display": 0, "stop_abribus": 0 }, "geometry": { "type": "Point", "coordinates": [ -73.86373, 45.547034, 0.0 ] } },
{ "type": "Feature", "properties": { "stop_id": [ "A", "O", "U", "T", "1", "8", "C", "P", "4", "6", "3", "0", "6", ",", "J", "U", "I", "N", "1", "8", "C", "P", "4", "6", "3", "0", "6" ], "stop_code": [ "4", "6", "3", "0", "6" ], "stop_name": "Montée Saint-François \/ Face Au 161", "stop_lon": -73.64782, "stop_lat": 45.619639, "location_type": 0, "stop_display": 0, "stop_abribus": 0 }, "geometry": { "type": "Point", "coordinates": [ -73.64782, 45.619639, 0.0 ] } },
{ "type": "Feature", "properties": { "stop_id": [ "J", "U", "I", "N", "1", "8", "4", "2", "0", "4", "1", ",", "A", "O", "U", "T", "1", "8", "4", "2", "0", "4", "1" ], "stop_code": [ "4", "2", "0", "4", "1" ], "stop_name": "Lévesque \/ Face Au 10060", "stop_lon": -73.54787, "stop_lat": 45.684934, "location_type": 0, "stop_display": 0, "stop_abribus": 0 }, "geometry": { "type": "Point", "coordinates": [ -73.54787, 45.684934, 0.0 ] } },
{ "type": "Feature", "properties": { "stop_id": [ "J", "U", "I", "N", "1", "8", "4", "3", "1", "5", "9", ",", "A", "O", "U", "T", "1", "8", "4", "3", "1", "5", "9" ], "stop_code": [ "4", "3", "1", "5", "9" ], "stop_name": "Du Souvenir \/ D'effingham", "stop_lon": -73.77048, "stop_lat": 45.537899, "location_type": 0, "stop_display": 0, "stop_abribus": 0 }, "geometry": { "type": "Point", "coordinates": [ -73.77048, 45.537899, 0.0 ] } },
{ "type": "Feature", "properties": { "stop_id": [ "A", "O", "U", "T", "1", "8", "4", "1", "4", "8", "8", ",", "J", "U", "I", "N", "1", "8", "4", "1", "4", "8", "8" ], "stop_code": [ "4", "1", "4", "8", "8" ], "stop_name": "Dagenais \/ De Coblence", "stop_lon": -73.72597, "stop_lat": 45.609226, "location_type": 0, "stop_display": 0, "stop_abribus": 0 }, "geometry": { "type": "Point", "coordinates": [ -73.72597, 45.609226, 0.0 ] } },
{ "type": "Feature", "properties": { "stop_id": [ "A", "O", "U", "T", "1", "8", "4", "3", "1", "1", "6", ",", "J", "U", "I", "N", "1", "8", "4", "3", "1", "1", "6" ], "stop_code": [ "4", "3", "1", "1", "6" ], "stop_name": "Du Souvenir \/ élisabeth", "stop_lon": -73.76238, "stop_lat": 45.544945, "location_type": 0, "stop_display": 0, "stop_abribus": 0 }, "geometry": { "type": "Point", "coordinates": [ -73.76238, 45.544945, 0.0 ] } },
{ "type": "Feature", "properties": { "stop_id": [ "A", "O", "U", "T", "1", "8", "4", "2", "0", "9", "8", ",", "J", "U", "I", "N", "1", "8", "4", "2", "0", "9", "8" ], "stop_code": [ "4", "2", "0", "9", "8" ], "stop_name": "Lévesque \/ Rose-De-Lima", "stop_lon": -73.65075, "stop_lat": 45.600064, "location_type": 0, "stop_display": 0, "stop_abribus": 0 }, "geometry": { "type": "Point", "coordinates": [ -73.65075, 45.600064, 0.0 ] } },
{ "type": "Feature", "properties": { "stop_id": [ "A", "O", "U", "T", "1", "8", "C", "P", "4", "7", "1", "4", "1", ",", "J", "U", "I", "N", "1", "8", "C", "P", "4", "7", "1", "4", "1" ], "stop_code": [ "4", "7", "1", "4", "1" ], "stop_name": "Métro Cartier", "stop_lon": -73.6824, "stop_lat": 45.560027, "location_type": 0, "stop_display": 0, "stop_abribus": 0 }, "geometry": { "type": "Point", "coordinates": [ -73.6824, 45.560027, 0.0 ] } },
{ "type": "Feature", "properties": { "stop_id": [ "A", "O", "U", "T", "1", "8", "4", "6", "1", "3", "0", ",", "J", "U", "I", "N", "1", "8", "4", "6", "1", "3", "0" ], "stop_code": [ "4", "6", "1", "3", "0" ], "stop_name": "Dagenais \/ Montée Sauriol", "stop_lon": -73.82889, "stop_lat": 45.563814, "location_type": 0, "stop_display": 0, "stop_abribus": 0 }, "geometry": { "type": "Point", "coordinates": [ -73.82889, 45.563814, 0.0 ] } },
{ "type": "Feature", "properties": { "stop_id": [ "J", "U", "I", "N", "1", "8", "4", "1", "9", "1", "5", ",", "A", "O", "U", "T", "1", "8", "4", "1", "9", "1", "5", ",", "A", "O", "U", "T", "1", "8", "C", "P", "4", "1", "9", "1", "5", ",", "J", "U", "I", "N", "1", "8", "C", "P", "4", "1", "9", "1", "5" ], "stop_code": [ "4", "1", "9", "1", "5" ], "stop_name": "Laval \/ Du Trait-Carré", "stop_lon": -73.71857, "stop_lat": 45.565707, "location_type": 0, "stop_display": 0, "stop_abribus": 1 }, "geometry": { "type": "Point", "coordinates": [ -73.71857, 45.565707, 0.0 ] } },
{ "type": "Feature", "properties": { "stop_id": [ "A", "O", "U", "T", "1", "8", "4", "3", "1", "9", "5", ",", "J", "U", "I", "N", "1", "8", "4", "3", "1", "9", "5" ], "stop_code": [ "4", "3", "1", "9", "5" ], "stop_name": "Tourangeau \/ Des Alpes", "stop_lon": -73.67608, "stop_lat": 45.571017, "location_type": 0, "stop_display": 0, "stop_abribus": 1 }, "geometry": { "type": "Point", "coordinates": [ -73.67608, 45.571017, 0.0 ] } },
{ "type": "Feature", "properties": { "stop_id": [ "A", "O", "U", "T", "1", "8", "4", "6", "2", "7", "1", ",", "J", "U", "I", "N", "1", "8", "4", "6", "2", "7", "1" ], "stop_code": [ "4", "6", "2", "7", "1" ], "stop_name": "Dagenais \/ Forand", "stop_lon": -73.78662, "stop_lat": 45.579963, "location_type": 0, "stop_display": 0, "stop_abribus": 0 }, "geometry": { "type": "Point", "coordinates": [ -73.78662, 45.579963, 0.0 ] } },
{ "type": "Feature", "properties": { "stop_id": [ "J", "U", "I", "N", "1", "8", "4", "2", "0", "7", "0", ",", "A", "O", "U", "T", "1", "8", "4", "2", "0", "7", "0" ], "stop_code": [ "4", "2", "0", "7", "0" ], "stop_name": "Lévesque \/ J.-J.-Joubert", "stop_lon": -73.67199, "stop_lat": 45.574839, "location_type": 0, "stop_display": 0, "stop_abribus": 1 }, "geometry": { "type": "Point", "coordinates": [ -73.67199, 45.574839, 0.0 ] } },
{ "type": "Feature", "properties": { "stop_id": [ "J", "U", "I", "N", "1", "8", "4", "2", "1", "3", "8", ",", "A", "O", "U", "T", "1", "8", "4", "2", "1", "3", "8" ], "stop_code": [ "4", "2", "1", "3", "8" ], "stop_name": "Lévesque \/ Des Cépages", "stop_lon": -73.61415, "stop_lat": 45.646501, "location_type": 0, "stop_display": 0, "stop_abribus": 0 }, "geometry": { "type": "Point", "coordinates": [ -73.61415, 45.646501, 0.0 ] } },
{ "type": "Feature", "properties": { "stop_id": [ "A", "O", "U", "T", "1", "8", "4", "3", "9", "9", "8", ",", "J", "U", "I", "N", "1", "8", "4", "3", "9", "9", "8" ], "stop_code": [ "4", "3", "9", "9", "8" ], "stop_name": "Des Lacasse \/ De Gap", "stop_lon": -73.73142, "stop_lat": 45.628813, "location_type": 0, "stop_display": 0, "stop_abribus": 0 }, "geometry": { "type": "Point", "coordinates": [ -73.73142, 45.628813, 0.0 ] } },
{ "type": "Feature", "properties": { "stop_id": [ "J", "U", "I", "N", "1", "8", "4", "2", "3", "3", "5", ",", "A", "O", "U", "T", "1", "8", "4", "2", "3", "3", "5" ], "stop_code": [ "4", "2", "3", "3", "5" ], "stop_name": "Des Mille-îles \/ Face Au 8710", "stop_lon": -73.58044, "stop_lat": 45.692897, "location_type": 0, "stop_display": 0, "stop_abribus": 0 }, "geometry": { "type": "Point", "coordinates": [ -73.58044, 45.692897, 0.0 ] } },
{ "type": "Feature", "properties": { "stop_id": [ "J", "U", "I", "N", "1", "8", "C", "P", "4", "6", "0", "3", "5", ",", "A", "O", "U", "T", "1", "8", "C", "P", "4", "6", "0", "3", "5" ], "stop_code": [ "4", "6", "0", "3", "5" ], "stop_name": "Ampère \/ De Royan", "stop_lon": -73.70905, "stop_lat": 45.56226, "location_type": 0, "stop_display": 0, "stop_abribus": 0 }, "geometry": { "type": "Point", "coordinates": [ -73.70905, 45.56226, 0.0 ] } },
{ "type": "Feature", "properties": { "stop_id": [ "J", "U", "I", "N", "1", "8", "4", "1", "0", "1", "0", ",", "A", "O", "U", "T", "1", "8", "4", "1", "0", "1", "0" ], "stop_code": [ "4", "1", "0", "1", "0" ], "stop_name": "Des Lacasse \/ De Gap", "stop_lon": -73.73132, "stop_lat": 45.628948, "location_type": 0, "stop_display": 0, "stop_abribus": 0 }, "geometry": { "type": "Point", "coordinates": [ -73.73132, 45.628948, 0.0 ] } },
{ "type": "Feature", "properties": { "stop_id": [ "A", "O", "U", "T", "1", "8", "4", "3", "0", "3", "2", ",", "J", "U", "I", "N", "1", "8", "4", "3", "0", "3", "2" ], "stop_code": [ "4", "3", "0", "3", "2" ], "stop_name": "Samson \/ Josaphat-Demers", "stop_lon": -73.78772, "stop_lat": 45.521839, "location_type": 0, "stop_display": 0, "stop_abribus": 1 }, "geometry": { "type": "Point", "coordinates": [ -73.78772, 45.521839, 0.0 ] } },
{ "type": "Feature", "properties": { "stop_id": [ "J", "U", "I", "N", "1", "8", "4", "6", "1", "2", "0", ",", "A", "O", "U", "T", "1", "8", "4", "6", "1", "2", "0" ], "stop_code": [ "4", "6", "1", "2", "0" ], "stop_name": "Saint-Martin \/ Lesage", "stop_lon": -73.66709, "stop_lat": 45.61094, "location_type": 0, "stop_display": 0, "stop_abribus": 0 }, "geometry": { "type": "Point", "coordinates": [ -73.66709, 45.61094, 0.0 ] } },
{ "type": "Feature", "properties": { "stop_id": [ "J", "U", "I", "N", "1", "8", "4", "2", "5", "2", "1", ",", "A", "O", "U", "T", "1", "8", "4", "2", "5", "2", "1" ], "stop_code": [ "4", "2", "5", "2", "1" ], "stop_name": "Notre-Dame-De-Fatima \/ De Metz", "stop_lon": -73.68075, "stop_lat": 45.57858, "location_type": 0, "stop_display": 0, "stop_abribus": 1 }, "geometry": { "type": "Point", "coordinates": [ -73.68075, 45.57858, 0.0 ] } },
{ "type": "Feature", "properties": { "stop_id": [ "A", "O", "U", "T", "1", "8", "4", "6", "0", "5", "4", ",", "J", "U", "I", "N", "1", "8", "4", "6", "0", "5", "4" ], "stop_code": [ "4", "6", "0", "5", "4" ], "stop_name": "Vallières \/ Richard", "stop_lon": -73.71457, "stop_lat": 45.584692, "location_type": 0, "stop_display": 0, "stop_abribus": 0 }, "geometry": { "type": "Point", "coordinates": [ -73.71457, 45.584692, 0.0 ] } },
{ "type": "Feature", "properties": { "stop_id": [ "J", "U", "I", "N", "1", "8", "C", "P", "4", "6", "3", "0", "0", ",", "A", "O", "U", "T", "1", "8", "C", "P", "4", "6", "3", "0", "0" ], "stop_code": [ "4", "6", "3", "0", "0" ], "stop_name": "Mirelle \/ Chartrand", "stop_lon": -73.58124, "stop_lat": 45.665115, "location_type": 0, "stop_display": 0, "stop_abribus": 0 }, "geometry": { "type": "Point", "coordinates": [ -73.58124, 45.665115, 0.0 ] } },
{ "type": "Feature", "properties": { "stop_id": [ "A", "O", "U", "T", "1", "8", "4", "2", "1", "6", "8", ",", "J", "U", "I", "N", "1", "8", "4", "2", "1", "6", "8" ], "stop_code": [ "4", "2", "1", "6", "8" ], "stop_name": "Mcnamara \/ Saint-Martin", "stop_lon": -73.72362, "stop_lat": 45.571033, "location_type": 0, "stop_display": 0, "stop_abribus": 0 }, "geometry": { "type": "Point", "coordinates": [ -73.72362, 45.571033, 0.0 ] } },
{ "type": "Feature", "properties": { "stop_id": [ "A", "O", "U", "T", "1", "8", "4", "1", "9", "9", "2", ",", "A", "O", "U", "T", "1", "8", "C", "P", "4", "1", "9", "9", "2", ",", "J", "U", "I", "N", "1", "8", "4", "1", "9", "9", "2", ",", "J", "U", "I", "N", "1", "8", "C", "P", "4", "1", "9", "9", "2" ], "stop_code": [ "4", "1", "9", "9", "2" ], "stop_name": "Lévesque \/ Des Hêtres", "stop_lon": -73.60315, "stop_lat": 45.651263, "location_type": 0, "stop_display": 0, "stop_abribus": 0 }, "geometry": { "type": "Point", "coordinates": [ -73.60315, 45.651263, 0.0 ] } },
{ "type": "Feature", "properties": { "stop_id": [ "A", "O", "U", "T", "1", "8", "4", "2", "2", "8", "6", ",", "J", "U", "I", "N", "1", "8", "4", "2", "2", "8", "6" ], "stop_code": [ "4", "2", "2", "8", "6" ], "stop_name": "Des Mille-îles \/ Face Au 2615", "stop_lon": -73.71508, "stop_lat": 45.678452, "location_type": 0, "stop_display": 0, "stop_abribus": 0 }, "geometry": { "type": "Point", "coordinates": [ -73.71508, 45.678452, 0.0 ] } },
{ "type": "Feature", "properties": { "stop_id": [ "A", "O", "U", "T", "1", "8", "C", "P", "4", "1", "9", "4", "6", ",", "J", "U", "I", "N", "1", "8", "C", "P", "4", "1", "9", "4", "6" ], "stop_code": [ "4", "1", "9", "4", "6" ], "stop_name": "Le Corbusier \/ Saint-Elzéar", "stop_lon": -73.75033, "stop_lat": 45.584215, "location_type": 0, "stop_display": 0, "stop_abribus": 1 }, "geometry": { "type": "Point", "coordinates": [ -73.75033, 45.584215, 0.0 ] } },
{ "type": "Feature", "properties": { "stop_id": [ "A", "O", "U", "T", "1", "8", "4", "2", "9", "4", "7", ",", "J", "U", "I", "N", "1", "8", "4", "2", "9", "4", "7" ], "stop_code": [ "4", "2", "9", "4", "7" ], "stop_name": "Sainte-Rose \/ 30e Avenue", "stop_lon": -73.84689, "stop_lat": 45.565808, "location_type": 0, "stop_display": 0, "stop_abribus": 1 }, "geometry": { "type": "Point", "coordinates": [ -73.84689, 45.565808, 0.0 ] } },
{ "type": "Feature", "properties": { "stop_id": [ "J", "U", "I", "N", "1", "8", "4", "1", "7", "0", "4", ",", "A", "O", "U", "T", "1", "8", "4", "1", "7", "0", "4" ], "stop_code": [ "4", "1", "7", "0", "4" ], "stop_name": "Gravel \/ Du Bord-De-L'eau", "stop_lon": -73.81335, "stop_lat": 45.520629, "location_type": 0, "stop_display": 0, "stop_abribus": 0 }, "geometry": { "type": "Point", "coordinates": [ -73.81335, 45.520629, 0.0 ] } },
{ "type": "Feature", "properties": { "stop_id": [ "A", "O", "U", "T", "1", "8", "C", "P", "4", "6", "3", "7", "0", ",", "J", "U", "I", "N", "1", "8", "C", "P", "4", "6", "3", "7", "0" ], "stop_code": [ "4", "6", "3", "7", "0" ], "stop_name": "Des Gouverneurs \/ Des Aristocrates", "stop_lon": -73.67938, "stop_lat": 45.616399, "location_type": 0, "stop_display": 0, "stop_abribus": 0 }, "geometry": { "type": "Point", "coordinates": [ -73.67938, 45.616399, 0.0 ] } },
{ "type": "Feature", "properties": { "stop_id": [ "A", "O", "U", "T", "1", "8", "4", "1", "9", "0", "6", ",", "J", "U", "I", "N", "1", "8", "4", "1", "9", "0", "6" ], "stop_code": [ "4", "1", "9", "0", "6" ], "stop_name": "De Lausanne \/ De Ronchamp", "stop_lon": -73.72041, "stop_lat": 45.622284, "location_type": 0, "stop_display": 0, "stop_abribus": 1 }, "geometry": { "type": "Point", "coordinates": [ -73.72041, 45.622284, 0.0 ] } },
{ "type": "Feature", "properties": { "stop_id": [ "J", "U", "I", "N", "1", "8", "4", "2", "2", "4", "0", ",", "A", "O", "U", "T", "1", "8", "4", "2", "2", "4", "0" ], "stop_code": [ "4", "2", "2", "4", "0" ], "stop_name": "Mésy \/ Fernand-Séguin", "stop_lon": -73.68585, "stop_lat": 45.587909, "location_type": 0, "stop_display": 0, "stop_abribus": 0 }, "geometry": { "type": "Point", "coordinates": [ -73.68585, 45.587909, 0.0 ] } },
{ "type": "Feature", "properties": { "stop_id": [ "J", "U", "I", "N", "1", "8", "4", "6", "3", "9", "7", ",", "A", "O", "U", "T", "1", "8", "4", "6", "3", "9", "7" ], "stop_code": [ "4", "6", "3", "9", "7" ], "stop_name": "Des Terrasses \/ Sicard", "stop_lon": -73.76494, "stop_lat": 45.634796, "location_type": 0, "stop_display": 0, "stop_abribus": 0 }, "geometry": { "type": "Point", "coordinates": [ -73.76494, 45.634796, 0.0 ] } },
{ "type": "Feature", "properties": { "stop_id": [ "A", "O", "U", "T", "1", "8", "4", "5", "0", "0", "8", ",", "J", "U", "I", "N", "1", "8", "4", "5", "0", "0", "8" ], "stop_code": [ "4", "5", "0", "0", "8" ], "stop_name": "Samson \/ Face Au 7", "stop_lon": -73.7843, "stop_lat": 45.522316, "location_type": 0, "stop_display": 0, "stop_abribus": 0 }, "geometry": { "type": "Point", "coordinates": [ -73.7843, 45.522316, 0.0 ] } },
{ "type": "Feature", "properties": { "stop_id": [ "A", "O", "U", "T", "1", "8", "4", "2", "5", "3", "6", ",", "J", "U", "I", "N", "1", "8", "4", "2", "5", "3", "6" ], "stop_code": [ "4", "2", "5", "3", "6" ], "stop_name": "Des Oiseaux \/ De L'engoulevent", "stop_lon": -73.77661, "stop_lat": 45.586946, "location_type": 0, "stop_display": 0, "stop_abribus": 0 }, "geometry": { "type": "Point", "coordinates": [ -73.77661, 45.586946, 0.0 ] } },
{ "type": "Feature", "properties": { "stop_id": [ "J", "U", "I", "N", "1", "8", "4", "2", "6", "8", "2", ",", "A", "O", "U", "T", "1", "8", "4", "2", "6", "8", "2" ], "stop_code": [ "4", "2", "6", "8", "2" ], "stop_name": "Provence \/ Pellan", "stop_lon": -73.74754, "stop_lat": 45.629679, "location_type": 0, "stop_display": 0, "stop_abribus": 0 }, "geometry": { "type": "Point", "coordinates": [ -73.74754, 45.629679, 0.0 ] } },
{ "type": "Feature", "properties": { "stop_id": [ "J", "U", "I", "N", "1", "8", "4", "6", "1", "9", "5", ",", "A", "O", "U", "T", "1", "8", "4", "6", "1", "9", "5" ], "stop_code": [ "4", "6", "1", "9", "5" ], "stop_name": "Des Rossignols \/ De La Perdriole", "stop_lon": -73.77249, "stop_lat": 45.593953, "location_type": 0, "stop_display": 0, "stop_abribus": 0 }, "geometry": { "type": "Point", "coordinates": [ -73.77249, 45.593953, 0.0 ] } },
{ "type": "Feature", "properties": { "stop_id": [ "J", "U", "I", "N", "1", "8", "4", "3", "9", "9", "3", ",", "A", "O", "U", "T", "1", "8", "4", "3", "9", "9", "3" ], "stop_code": [ "4", "3", "9", "9", "3" ], "stop_name": "Prudentiel \/ De Montevideo", "stop_lon": -73.72191, "stop_lat": 45.6248, "location_type": 0, "stop_display": 0, "stop_abribus": 0 }, "geometry": { "type": "Point", "coordinates": [ -73.72191, 45.6248, 0.0 ] } },
{ "type": "Feature", "properties": { "stop_id": [ "A", "O", "U", "T", "1", "8", "4", "1", "9", "8", "0", ",", "J", "U", "I", "N", "1", "8", "4", "1", "9", "8", "0" ], "stop_code": [ "4", "1", "9", "8", "0" ], "stop_name": "Lesage \/ Face Au 1183", "stop_lon": -73.66789, "stop_lat": 45.60785, "location_type": 0, "stop_display": 0, "stop_abribus": 0 }, "geometry": { "type": "Point", "coordinates": [ -73.66789, 45.60785, 0.0 ] } },
{ "type": "Feature", "properties": { "stop_id": [ "A", "O", "U", "T", "1", "8", "4", "1", "4", "5", "6", ",", "J", "U", "I", "N", "1", "8", "4", "1", "4", "5", "6" ], "stop_code": [ "4", "1", "4", "5", "6" ], "stop_name": "Curé-Labelle \/ De La Canardière", "stop_lon": -73.78765, "stop_lat": 45.595702, "location_type": 0, "stop_display": 0, "stop_abribus": 0 }, "geometry": { "type": "Point", "coordinates": [ -73.78765, 45.595702, 0.0 ] } },
{ "type": "Feature", "properties": { "stop_id": [ "J", "U", "I", "N", "1", "8", "4", "2", "7", "7", "1", ",", "A", "O", "U", "T", "1", "8", "4", "2", "7", "7", "1" ], "stop_code": [ "4", "2", "7", "7", "1" ], "stop_name": "Saint-Elzéar \/ Aimé-Séguin", "stop_lon": -73.72656, "stop_lat": 45.604816, "location_type": 0, "stop_display": 0, "stop_abribus": 0 }, "geometry": { "type": "Point", "coordinates": [ -73.72656, 45.604816, 0.0 ] } },
{ "type": "Feature", "properties": { "stop_id": [ "J", "U", "I", "N", "1", "8", "4", "2", "4", "7", "0", ",", "A", "O", "U", "T", "1", "8", "4", "2", "4", "7", "0" ], "stop_code": [ "4", "2", "4", "7", "0" ], "stop_name": "Norman-Bethune \/ Philippe-Pinel", "stop_lon": -73.7097, "stop_lat": 45.612577, "location_type": 0, "stop_display": 0, "stop_abribus": 0 }, "geometry": { "type": "Point", "coordinates": [ -73.7097, 45.612577, 0.0 ] } },
{ "type": "Feature", "properties": { "stop_id": [ "A", "O", "U", "T", "1", "8", "4", "3", "2", "2", "1", ",", "J", "U", "I", "N", "1", "8", "4", "3", "2", "2", "1" ], "stop_code": [ "4", "3", "2", "2", "1" ], "stop_name": "De Val-Brillant \/ Face Au Parc Jolibourg", "stop_lon": -73.85996, "stop_lat": 45.525261, "location_type": 0, "stop_display": 0, "stop_abribus": 0 }, "geometry": { "type": "Point", "coordinates": [ -73.85996, 45.525261, 0.0 ] } },
{ "type": "Feature", "properties": { "stop_id": [ "J", "U", "I", "N", "1", "8", "4", "2", "1", "4", "2", ",", "A", "O", "U", "T", "1", "8", "4", "2", "1", "4", "2" ], "stop_code": [ "4", "2", "1", "4", "2" ], "stop_name": "Louis-Payette \/ Favreau", "stop_lon": -73.77055, "stop_lat": 45.553538, "location_type": 0, "stop_display": 0, "stop_abribus": 0 }, "geometry": { "type": "Point", "coordinates": [ -73.77055, 45.553538, 0.0 ] } },
{ "type": "Feature", "properties": { "stop_id": [ "A", "O", "U", "T", "1", "8", "4", "1", "5", "3", "0", ",", "J", "U", "I", "N", "1", "8", "4", "1", "5", "3", "0" ], "stop_code": [ "4", "1", "5", "3", "0" ], "stop_name": "De La Renaissance \/ Antoine-Plamondon", "stop_lon": -73.79367, "stop_lat": 45.601118, "location_type": 0, "stop_display": 0, "stop_abribus": 0 }, "geometry": { "type": "Point", "coordinates": [ -73.79367, 45.601118, 0.0 ] } },
{ "type": "Feature", "properties": { "stop_id": [ "A", "O", "U", "T", "1", "8", "4", "6", "5", "3", "7", ",", "J", "U", "I", "N", "1", "8", "4", "6", "5", "3", "7" ], "stop_code": [ "4", "6", "5", "3", "7" ], "stop_name": "Bombardier \/ Justine-Lacoste", "stop_lon": -73.58342, "stop_lat": 45.608431, "location_type": 0, "stop_display": 0, "stop_abribus": 0 }, "geometry": { "type": "Point", "coordinates": [ -73.58342, 45.608431, 0.0 ] } },
{ "type": "Feature", "properties": { "stop_id": [ "J", "U", "I", "N", "1", "8", "C", "P", "4", "8", "1", "6", "5", ",", "A", "O", "U", "T", "1", "8", "C", "P", "4", "8", "1", "6", "5", ",", "A", "O", "U", "T", "1", "8", "C", "P", "4", "8", "1", "4", "5", ",", "J", "U", "I", "N", "1", "8", "C", "P", "4", "8", "1", "3", "6", ",", "A", "O", "U", "T", "1", "8", "C", "P", "4", "8", "1", "3", "6", ",", "J", "U", "I", "N", "1", "8", "C", "P", "4", "8", "1", "4", "5" ], "stop_code": [ "4", "8", "1", "6", "5", ",", "4", "8", "1", "3", "6", ",", "4", "8", "1", "4", "5" ], "stop_name": "Métro Montmorency", "stop_lon": -73.72103, "stop_lat": 45.558277, "location_type": 0, "stop_display": 0, "stop_abribus": 0 }, "geometry": { "type": "Point", "coordinates": [ -73.72103, 45.558277, 0.0 ] } },
{ "type": "Feature", "properties": { "stop_id": [ "J", "U", "I", "N", "1", "8", "4", "6", "6", "0", "4", ",", "A", "O", "U", "T", "1", "8", "4", "6", "6", "0", "4" ], "stop_code": [ "4", "6", "6", "0", "4" ], "stop_name": "Sainte-Rose \/ 15e Avenue", "stop_lon": -73.85878, "stop_lat": 45.56273, "location_type": 0, "stop_display": 0, "stop_abribus": 0 }, "geometry": { "type": "Point", "coordinates": [ -73.85878, 45.56273, 0.0 ] } },
{ "type": "Feature", "properties": { "stop_id": [ "J", "U", "I", "N", "1", "8", "4", "2", "2", "6", "8", ",", "A", "O", "U", "T", "1", "8", "4", "2", "2", "6", "8" ], "stop_code": [ "4", "2", "2", "6", "8" ], "stop_name": "Des Mille-îles \/ De Laferte", "stop_lon": -73.6929, "stop_lat": 45.681137, "location_type": 0, "stop_display": 0, "stop_abribus": 0 }, "geometry": { "type": "Point", "coordinates": [ -73.6929, 45.681137, 0.0 ] } },
{ "type": "Feature", "properties": { "stop_id": [ "A", "O", "U", "T", "1", "8", "4", "2", "8", "7", "0", ",", "J", "U", "I", "N", "1", "8", "4", "2", "8", "7", "0" ], "stop_code": [ "4", "2", "8", "7", "0" ], "stop_name": "Saint-Martin \/ De Blois", "stop_lon": -73.68315, "stop_lat": 45.599711, "location_type": 0, "stop_display": 0, "stop_abribus": 1 }, "geometry": { "type": "Point", "coordinates": [ -73.68315, 45.599711, 0.0 ] } },
{ "type": "Feature", "properties": { "stop_id": [ "A", "O", "U", "T", "1", "8", "4", "1", "2", "0", "4", ",", "J", "U", "I", "N", "1", "8", "4", "1", "2", "0", "4" ], "stop_code": [ "4", "1", "2", "0", "4" ], "stop_name": "Du Bord-De-L'eau \/ Montreuil", "stop_lon": -73.7874, "stop_lat": 45.518619, "location_type": 0, "stop_display": 0, "stop_abribus": 0 }, "geometry": { "type": "Point", "coordinates": [ -73.7874, 45.518619, 0.0 ] } },
{ "type": "Feature", "properties": { "stop_id": [ "A", "O", "U", "T", "1", "8", "4", "3", "4", "2", "5", ",", "J", "U", "I", "N", "1", "8", "4", "3", "4", "2", "5" ], "stop_code": [ "4", "3", "4", "2", "5" ], "stop_name": "Notre-Dame \/ Samson", "stop_lon": -73.80074, "stop_lat": 45.522807, "location_type": 0, "stop_display": 0, "stop_abribus": 0 }, "geometry": { "type": "Point", "coordinates": [ -73.80074, 45.522807, 0.0 ] } },
{ "type": "Feature", "properties": { "stop_id": [ "A", "O", "U", "T", "1", "8", "4", "1", "5", "1", "3", ",", "J", "U", "I", "N", "1", "8", "4", "1", "5", "1", "3" ], "stop_code": [ "4", "1", "5", "1", "3" ], "stop_name": "D'argenteuil \/ Laval", "stop_lon": -73.71042, "stop_lat": 45.556517, "location_type": 0, "stop_display": 0, "stop_abribus": 0 }, "geometry": { "type": "Point", "coordinates": [ -73.71042, 45.556517, 0.0 ] } },
{ "type": "Feature", "properties": { "stop_id": [ "A", "O", "U", "T", "1", "8", "4", "6", "4", "3", "0", ",", "J", "U", "I", "N", "1", "8", "4", "6", "4", "3", "0" ], "stop_code": [ "4", "6", "4", "3", "0" ], "stop_name": "De La Renaissance \/ Marc-Aurèle-Fortin", "stop_lon": -73.80126, "stop_lat": 45.60054, "location_type": 0, "stop_display": 0, "stop_abribus": 0 }, "geometry": { "type": "Point", "coordinates": [ -73.80126, 45.60054, 0.0 ] } },
{ "type": "Feature", "properties": { "stop_id": [ "A", "O", "U", "T", "1", "8", "4", "3", "0", "4", "9", ",", "J", "U", "I", "N", "1", "8", "4", "3", "0", "4", "9" ], "stop_code": [ "4", "3", "0", "4", "9" ], "stop_name": "Samson \/ Des îles", "stop_lon": -73.76277, "stop_lat": 45.527371, "location_type": 0, "stop_display": 1, "stop_abribus": 1 }, "geometry": { "type": "Point", "coordinates": [ -73.76277, 45.527371, 0.0 ] } },
{ "type": "Feature", "properties": { "stop_id": [ "J", "U", "I", "N", "1", "8", "4", "1", "6", "8", "9", ",", "A", "O", "U", "T", "1", "8", "4", "1", "6", "8", "9" ], "stop_code": [ "4", "1", "6", "8", "9" ], "stop_name": "Giroux \/ 4e Rue", "stop_lon": -73.71572, "stop_lat": 45.54992, "location_type": 0, "stop_display": 0, "stop_abribus": 0 }, "geometry": { "type": "Point", "coordinates": [ -73.71572, 45.54992, 0.0 ] } },
{ "type": "Feature", "properties": { "stop_id": [ "J", "U", "I", "N", "1", "8", "C", "P", "4", "2", "8", "5", "5", ",", "J", "U", "I", "N", "1", "8", "4", "2", "8", "5", "5", ",", "A", "O", "U", "T", "1", "8", "4", "2", "8", "5", "5", ",", "A", "O", "U", "T", "1", "8", "C", "P", "4", "2", "8", "5", "5" ], "stop_code": [ "4", "2", "8", "5", "5" ], "stop_name": "Saint-Martin \/ De Grenoble", "stop_lon": -73.70677, "stop_lat": 45.58135, "location_type": 0, "stop_display": 1, "stop_abribus": 1 }, "geometry": { "type": "Point", "coordinates": [ -73.70677, 45.58135, 0.0 ] } },
{ "type": "Feature", "properties": { "stop_id": [ "A", "O", "U", "T", "1", "8", "4", "3", "2", "2", "0", ",", "J", "U", "I", "N", "1", "8", "4", "3", "2", "2", "0" ], "stop_code": [ "4", "3", "2", "2", "0" ], "stop_name": "De Val-Brillant \/ De L'anse-Au-Griffon", "stop_lon": -73.85942, "stop_lat": 45.526765, "location_type": 0, "stop_display": 0, "stop_abribus": 0 }, "geometry": { "type": "Point", "coordinates": [ -73.85942, 45.526765, 0.0 ] } },
{ "type": "Feature", "properties": { "stop_id": [ "J", "U", "I", "N", "1", "8", "4", "6", "4", "4", "9", ",", "A", "O", "U", "T", "1", "8", "4", "6", "4", "4", "9" ], "stop_code": [ "4", "6", "4", "4", "9" ], "stop_name": "Marc-Aurèle-Fortin \/ Jean-Dallaire", "stop_lon": -73.79975, "stop_lat": 45.593543, "location_type": 0, "stop_display": 0, "stop_abribus": 0 }, "geometry": { "type": "Point", "coordinates": [ -73.79975, 45.593543, 0.0 ] } },
{ "type": "Feature", "properties": { "stop_id": [ "A", "O", "U", "T", "1", "8", "4", "1", "1", "9", "3", ",", "J", "U", "I", "N", "1", "8", "4", "1", "1", "9", "3" ], "stop_code": [ "4", "1", "1", "9", "3" ], "stop_name": "Du Bord-De-L'eau \/ Lafontaine", "stop_lon": -73.84961, "stop_lat": 45.523574, "location_type": 0, "stop_display": 0, "stop_abribus": 1 }, "geometry": { "type": "Point", "coordinates": [ -73.84961, 45.523574, 0.0 ] } },
{ "type": "Feature", "properties": { "stop_id": [ "J", "U", "I", "N", "1", "8", "4", "1", "0", "3", "1", ",", "A", "O", "U", "T", "1", "8", "4", "1", "0", "3", "1" ], "stop_code": [ "4", "1", "0", "3", "1" ], "stop_name": "5e Avenue \/ 8e Avenue", "stop_lon": -73.77055, "stop_lat": 45.641352, "location_type": 0, "stop_display": 0, "stop_abribus": 0 }, "geometry": { "type": "Point", "coordinates": [ -73.77055, 45.641352, 0.0 ] } },
{ "type": "Feature", "properties": { "stop_id": [ "A", "O", "U", "T", "1", "8", "4", "3", "4", "2", "6", ",", "J", "U", "I", "N", "1", "8", "4", "3", "4", "2", "6" ], "stop_code": [ "4", "3", "4", "2", "6" ], "stop_name": "Sylvie \/ Samson", "stop_lon": -73.80397, "stop_lat": 45.524965, "location_type": 0, "stop_display": 0, "stop_abribus": 0 }, "geometry": { "type": "Point", "coordinates": [ -73.80397, 45.524965, 0.0 ] } },
{ "type": "Feature", "properties": { "stop_id": [ "J", "U", "I", "N", "1", "8", "4", "6", "1", "3", "1", ",", "A", "O", "U", "T", "1", "8", "4", "6", "1", "3", "1" ], "stop_code": [ "4", "6", "1", "3", "1" ], "stop_name": "Dagenais \/ Russell", "stop_lon": -73.83321, "stop_lat": 45.560999, "location_type": 0, "stop_display": 0, "stop_abribus": 0 }, "geometry": { "type": "Point", "coordinates": [ -73.83321, 45.560999, 0.0 ] } },
{ "type": "Feature", "properties": { "stop_id": [ "J", "U", "I", "N", "1", "8", "4", "6", "4", "8", "3", ",", "A", "O", "U", "T", "1", "8", "4", "6", "4", "8", "3" ], "stop_code": [ "4", "6", "4", "8", "3" ], "stop_name": "Ernest-Cormier \/ Face Au 6810", "stop_lon": -73.64579, "stop_lat": 45.633054, "location_type": 0, "stop_display": 0, "stop_abribus": 0 }, "geometry": { "type": "Point", "coordinates": [ -73.64579, 45.633054, 0.0 ] } },
{ "type": "Feature", "properties": { "stop_id": [ "A", "O", "U", "T", "1", "8", "4", "6", "5", "4", "5", ",", "J", "U", "I", "N", "1", "8", "4", "6", "5", "4", "5" ], "stop_code": [ "4", "6", "5", "4", "5" ], "stop_name": "Robert-Bourassa \/ Face Au Bureau En Gros", "stop_lon": -73.68951, "stop_lat": 45.611245, "location_type": 0, "stop_display": 0, "stop_abribus": 0 }, "geometry": { "type": "Point", "coordinates": [ -73.68951, 45.611245, 0.0 ] } },
{ "type": "Feature", "properties": { "stop_id": [ "J", "U", "I", "N", "1", "8", "4", "2", "2", "0", "3", ",", "A", "O", "U", "T", "1", "8", "4", "2", "2", "0", "3" ], "stop_code": [ "4", "2", "2", "0", "3" ], "stop_name": "Montée Masson \/ Face Au 2315", "stop_lon": -73.6366, "stop_lat": 45.662745, "location_type": 0, "stop_display": 0, "stop_abribus": 0 }, "geometry": { "type": "Point", "coordinates": [ -73.6366, 45.662745, 0.0 ] } },
{ "type": "Feature", "properties": { "stop_id": [ "A", "O", "U", "T", "1", "8", "C", "P", "4", "2", "7", "1", "9", ",", "J", "U", "I", "N", "1", "8", "C", "P", "4", "2", "7", "1", "9" ], "stop_code": [ "4", "2", "7", "1", "9" ], "stop_name": "Cité-De-La-Santé", "stop_lon": -73.71206, "stop_lat": 45.602297, "location_type": 0, "stop_display": 0, "stop_abribus": 1 }, "geometry": { "type": "Point", "coordinates": [ -73.71206, 45.602297, 0.0 ] } },
{ "type": "Feature", "properties": { "stop_id": [ "J", "U", "I", "N", "1", "8", "4", "2", "4", "3", "9", ",", "A", "O", "U", "T", "1", "8", "4", "2", "4", "3", "9" ], "stop_code": [ "4", "2", "4", "3", "9" ], "stop_name": "Montée Montrougeau \/ Dagenais", "stop_lon": -73.81087, "stop_lat": 45.576912, "location_type": 0, "stop_display": 0, "stop_abribus": 1 }, "geometry": { "type": "Point", "coordinates": [ -73.81087, 45.576912, 0.0 ] } },
{ "type": "Feature", "properties": { "stop_id": [ "A", "O", "U", "T", "1", "8", "4", "1", "5", "1", "0", ",", "J", "U", "I", "N", "1", "8", "4", "1", "5", "1", "0" ], "stop_code": [ "4", "1", "5", "1", "0" ], "stop_name": "Daniel-Johnson \/ Face Au 2540", "stop_lon": -73.75471, "stop_lat": 45.566872, "location_type": 0, "stop_display": 0, "stop_abribus": 1 }, "geometry": { "type": "Point", "coordinates": [ -73.75471, 45.566872, 0.0 ] } },
{ "type": "Feature", "properties": { "stop_id": [ "A", "O", "U", "T", "1", "8", "4", "2", "8", "0", "8", ",", "J", "U", "I", "N", "1", "8", "4", "2", "8", "0", "8" ], "stop_code": [ "4", "2", "8", "0", "8" ], "stop_name": "Saint-Martin \/ Pilon", "stop_lon": -73.76682, "stop_lat": 45.549137, "location_type": 0, "stop_display": 0, "stop_abribus": 0 }, "geometry": { "type": "Point", "coordinates": [ -73.76682, 45.549137, 0.0 ] } },
{ "type": "Feature", "properties": { "stop_id": [ "A", "O", "U", "T", "1", "8", "C", "P", "4", "9", "0", "2", "2", ",", "J", "U", "I", "N", "1", "8", "C", "P", "4", "9", "0", "2", "2" ], "stop_code": [ "4", "9", "0", "2", "2" ], "stop_name": "Terminus Contant", "stop_lon": -73.63605, "stop_lat": 45.687501, "location_type": 0, "stop_display": 0, "stop_abribus": 0 }, "geometry": { "type": "Point", "coordinates": [ -73.63605, 45.687501, 0.0 ] } },
{ "type": "Feature", "properties": { "stop_id": [ "A", "O", "U", "T", "1", "8", "4", "3", "4", "3", "6", ",", "J", "U", "I", "N", "1", "8", "4", "3", "4", "3", "6" ], "stop_code": [ "4", "3", "4", "3", "6" ], "stop_name": "Principale \/ Stéphane", "stop_lon": -73.80164, "stop_lat": 45.534464, "location_type": 0, "stop_display": 0, "stop_abribus": 0 }, "geometry": { "type": "Point", "coordinates": [ -73.80164, 45.534464, 0.0 ] } },
{ "type": "Feature", "properties": { "stop_id": [ "J", "U", "I", "N", "1", "8", "4", "1", "4", "1", "1", ",", "A", "O", "U", "T", "1", "8", "4", "1", "4", "1", "1" ], "stop_code": [ "4", "1", "4", "1", "1" ], "stop_name": "Curé-Labelle \/ Samson", "stop_lon": -73.74485, "stop_lat": 45.537614, "location_type": 0, "stop_display": 1, "stop_abribus": 1 }, "geometry": { "type": "Point", "coordinates": [ -73.74485, 45.537614, 0.0 ] } },
{ "type": "Feature", "properties": { "stop_id": [ "A", "O", "U", "T", "1", "8", "4", "2", "6", "0", "0", ",", "J", "U", "I", "N", "1", "8", "4", "2", "6", "0", "0" ], "stop_code": [ "4", "2", "6", "0", "0" ], "stop_name": "Des Prairies \/ Du Bon-Pasteur", "stop_lon": -73.70566, "stop_lat": 45.547761, "location_type": 0, "stop_display": 0, "stop_abribus": 0 }, "geometry": { "type": "Point", "coordinates": [ -73.70566, 45.547761, 0.0 ] } },
{ "type": "Feature", "properties": { "stop_id": [ "A", "O", "U", "T", "1", "8", "4", "1", "3", "0", "7", ",", "J", "U", "I", "N", "1", "8", "4", "1", "3", "0", "7" ], "stop_code": [ "4", "1", "3", "0", "7" ], "stop_name": "Christiane \/ Fleury", "stop_lon": -73.80317, "stop_lat": 45.583303, "location_type": 0, "stop_display": 0, "stop_abribus": 0 }, "geometry": { "type": "Point", "coordinates": [ -73.80317, 45.583303, 0.0 ] } },
{ "type": "Feature", "properties": { "stop_id": [ "J", "U", "I", "N", "1", "8", "4", "3", "1", "6", "6", ",", "A", "O", "U", "T", "1", "8", "4", "3", "1", "6", "6" ], "stop_code": [ "4", "3", "1", "6", "6" ], "stop_name": "Des Terrasses \/ Du Val-Des-Bois", "stop_lon": -73.75801, "stop_lat": 45.641606, "location_type": 0, "stop_display": 0, "stop_abribus": 0 }, "geometry": { "type": "Point", "coordinates": [ -73.75801, 45.641606, 0.0 ] } },
{ "type": "Feature", "properties": { "stop_id": [ "A", "O", "U", "T", "1", "8", "4", "2", "9", "1", "6", ",", "J", "U", "I", "N", "1", "8", "4", "2", "9", "1", "6" ], "stop_code": [ "4", "2", "9", "1", "6" ], "stop_name": "Sainte-Rose \/ 24e Rue", "stop_lon": -73.87154, "stop_lat": 45.550806, "location_type": 0, "stop_display": 0, "stop_abribus": 0 }, "geometry": { "type": "Point", "coordinates": [ -73.87154, 45.550806, 0.0 ] } },
{ "type": "Feature", "properties": { "stop_id": [ "A", "O", "U", "T", "1", "8", "4", "1", "7", "4", "2", ",", "A", "O", "U", "T", "1", "8", "C", "P", "4", "1", "7", "4", "2", ",", "J", "U", "I", "N", "1", "8", "4", "1", "7", "4", "2", ",", "J", "U", "I", "N", "1", "8", "C", "P", "4", "1", "7", "4", "2" ], "stop_code": [ "4", "1", "7", "4", "2" ], "stop_name": "Industriel \/ Salaberry", "stop_lon": -73.72383, "stop_lat": 45.57465, "location_type": 0, "stop_display": 0, "stop_abribus": 0 }, "geometry": { "type": "Point", "coordinates": [ -73.72383, 45.57465, 0.0 ] } },
{ "type": "Feature", "properties": { "stop_id": [ "A", "O", "U", "T", "1", "8", "4", "2", "7", "8", "9", ",", "J", "U", "I", "N", "1", "8", "4", "2", "7", "8", "9" ], "stop_code": [ "4", "2", "7", "8", "9" ], "stop_name": "Saint-Elzéar \/ René-Laennec", "stop_lon": -73.71895, "stop_lat": 45.608844, "location_type": 0, "stop_display": 0, "stop_abribus": 1 }, "geometry": { "type": "Point", "coordinates": [ -73.71895, 45.608844, 0.0 ] } },
{ "type": "Feature", "properties": { "stop_id": [ "A", "O", "U", "T", "1", "8", "4", "2", "9", "9", "3", ",", "J", "U", "I", "N", "1", "8", "4", "2", "9", "9", "3" ], "stop_code": [ "4", "2", "9", "9", "3" ], "stop_name": "Sainte-Rose \/ Longpré", "stop_lon": -73.79551, "stop_lat": 45.60815, "location_type": 0, "stop_display": 0, "stop_abribus": 0 }, "geometry": { "type": "Point", "coordinates": [ -73.79551, 45.60815, 0.0 ] } },
{ "type": "Feature", "properties": { "stop_id": [ "A", "O", "U", "T", "1", "8", "4", "2", "1", "4", "5", ",", "J", "U", "I", "N", "1", "8", "4", "2", "1", "4", "5" ], "stop_code": [ "4", "2", "1", "4", "5" ], "stop_name": "Louis-Payette \/ Ferrier", "stop_lon": -73.77371, "stop_lat": 45.551586, "location_type": 0, "stop_display": 0, "stop_abribus": 0 }, "geometry": { "type": "Point", "coordinates": [ -73.77371, 45.551586, 0.0 ] } },
{ "type": "Feature", "properties": { "stop_id": [ "A", "O", "U", "T", "1", "8", "4", "1", "2", "5", "8", ",", "J", "U", "I", "N", "1", "8", "4", "1", "2", "5", "8" ], "stop_code": [ "4", "1", "2", "5", "8" ], "stop_name": "Cartier \/ 67e Avenue", "stop_lon": -73.73102, "stop_lat": 45.540262, "location_type": 0, "stop_display": 0, "stop_abribus": 0 }, "geometry": { "type": "Point", "coordinates": [ -73.73102, 45.540262, 0.0 ] } },
{ "type": "Feature", "properties": { "stop_id": [ "A", "O", "U", "T", "1", "8", "4", "2", "2", "8", "8", ",", "J", "U", "I", "N", "1", "8", "4", "2", "2", "8", "8" ], "stop_code": [ "4", "2", "2", "8", "8" ], "stop_name": "Des Mille-îles \/ Face Au 2555", "stop_lon": -73.71656, "stop_lat": 45.678261, "location_type": 0, "stop_display": 0, "stop_abribus": 0 }, "geometry": { "type": "Point", "coordinates": [ -73.71656, 45.678261, 0.0 ] } },
{ "type": "Feature", "properties": { "stop_id": [ "A", "O", "U", "T", "1", "8", "4", "2", "3", "2", "6", ",", "J", "U", "I", "N", "1", "8", "4", "2", "3", "2", "6" ], "stop_code": [ "4", "2", "3", "2", "6" ], "stop_name": "Des Mille-îles \/ Canuel", "stop_lon": -73.56867, "stop_lat": 45.696189, "location_type": 0, "stop_display": 0, "stop_abribus": 0 }, "geometry": { "type": "Point", "coordinates": [ -73.56867, 45.696189, 0.0 ] } },
{ "type": "Feature", "properties": { "stop_id": [ "J", "U", "I", "N", "1", "8", "4", "2", "4", "4", "6", ",", "A", "O", "U", "T", "1", "8", "4", "2", "4", "4", "6" ], "stop_code": [ "4", "2", "4", "4", "6" ], "stop_name": "Monty \/ Lévesque", "stop_lon": -73.5762, "stop_lat": 45.664511, "location_type": 0, "stop_display": 0, "stop_abribus": 0 }, "geometry": { "type": "Point", "coordinates": [ -73.5762, 45.664511, 0.0 ] } },
{ "type": "Feature", "properties": { "stop_id": [ "J", "U", "I", "N", "1", "8", "4", "2", "5", "4", "6", ",", "A", "O", "U", "T", "1", "8", "4", "2", "5", "4", "6" ], "stop_code": [ "4", "2", "5", "4", "6" ], "stop_name": "Des Oiseaux \/ De La Volière (ouest)", "stop_lon": -73.78206, "stop_lat": 45.592055, "location_type": 0, "stop_display": 0, "stop_abribus": 0 }, "geometry": { "type": "Point", "coordinates": [ -73.78206, 45.592055, 0.0 ] } },
{ "type": "Feature", "properties": { "stop_id": [ "J", "U", "I", "N", "1", "8", "4", "2", "3", "7", "0", ",", "A", "O", "U", "T", "1", "8", "4", "2", "3", "7", "0" ], "stop_code": [ "4", "2", "3", "7", "0" ], "stop_name": "Des Mille-îles \/ Face Au 6700", "stop_lon": -73.62663, "stop_lat": 45.690129, "location_type": 0, "stop_display": 0, "stop_abribus": 0 }, "geometry": { "type": "Point", "coordinates": [ -73.62663, 45.690129, 0.0 ] } },
{ "type": "Feature", "properties": { "stop_id": [ "J", "U", "I", "N", "1", "8", "4", "2", "7", "9", "5", ",", "A", "O", "U", "T", "1", "8", "4", "2", "7", "9", "5" ], "stop_code": [ "4", "2", "7", "9", "5" ], "stop_name": "Saint-Hubert \/ Des Prairies", "stop_lon": -73.67761, "stop_lat": 45.558282, "location_type": 0, "stop_display": 0, "stop_abribus": 0 }, "geometry": { "type": "Point", "coordinates": [ -73.67761, 45.558282, 0.0 ] } },
{ "type": "Feature", "properties": { "stop_id": [ "J", "U", "I", "N", "1", "8", "4", "2", "1", "1", "5", ",", "A", "O", "U", "T", "1", "8", "4", "2", "1", "1", "5" ], "stop_code": [ "4", "2", "1", "1", "5" ], "stop_name": "Lévesque \/ Montée Saint-François", "stop_lon": -73.64408, "stop_lat": 45.616494, "location_type": 0, "stop_display": 0, "stop_abribus": 1 }, "geometry": { "type": "Point", "coordinates": [ -73.64408, 45.616494, 0.0 ] } },
{ "type": "Feature", "properties": { "stop_id": [ "J", "U", "I", "N", "1", "8", "4", "2", "9", "9", "9", ",", "A", "O", "U", "T", "1", "8", "4", "2", "9", "9", "9" ], "stop_code": [ "4", "2", "9", "9", "9" ], "stop_name": "Sainte-Rose \/ Face à La Résidence M.-A.-Fortin", "stop_lon": -73.79061, "stop_lat": 45.611815, "location_type": 0, "stop_display": 0, "stop_abribus": 0 }, "geometry": { "type": "Point", "coordinates": [ -73.79061, 45.611815, 0.0 ] } },
{ "type": "Feature", "properties": { "stop_id": [ "A", "O", "U", "T", "1", "8", "4", "2", "1", "8", "9", ",", "J", "U", "I", "N", "1", "8", "4", "2", "1", "8", "9" ], "stop_code": [ "4", "2", "1", "8", "9" ], "stop_name": "Montée Masson \/ Face Au 1368", "stop_lon": -73.64187, "stop_lat": 45.639173, "location_type": 0, "stop_display": 0, "stop_abribus": 0 }, "geometry": { "type": "Point", "coordinates": [ -73.64187, 45.639173, 0.0 ] } },
{ "type": "Feature", "properties": { "stop_id": [ "A", "O", "U", "T", "1", "8", "4", "2", "0", "2", "5", ",", "J", "U", "I", "N", "1", "8", "4", "2", "0", "2", "5" ], "stop_code": [ "4", "2", "0", "2", "5" ], "stop_name": "Lévesque \/ Viviane", "stop_lon": -73.55859, "stop_lat": 45.674726, "location_type": 0, "stop_display": 0, "stop_abribus": 0 }, "geometry": { "type": "Point", "coordinates": [ -73.55859, 45.674726, 0.0 ] } },
{ "type": "Feature", "properties": { "stop_id": [ "A", "O", "U", "T", "1", "8", "4", "2", "6", "6", "6", ",", "J", "U", "I", "N", "1", "8", "4", "2", "6", "6", "6" ], "stop_code": [ "4", "2", "6", "6", "6" ], "stop_name": "Principale \/ Face Au 1350", "stop_lon": -73.84049, "stop_lat": 45.533698, "location_type": 0, "stop_display": 0, "stop_abribus": 0 }, "geometry": { "type": "Point", "coordinates": [ -73.84049, 45.533698, 0.0 ] } },
{ "type": "Feature", "properties": { "stop_id": [ "J", "U", "I", "N", "1", "8", "C", "P", "4", "6", "6", "3", "2", ",", "A", "O", "U", "T", "1", "8", "C", "P", "4", "6", "6", "3", "2" ], "stop_code": [ "4", "6", "6", "3", "2" ], "stop_name": "Chartrand \/ Face Au Maxi", "stop_lon": -73.57548, "stop_lat": 45.667951, "location_type": 0, "stop_display": 0, "stop_abribus": 0 }, "geometry": { "type": "Point", "coordinates": [ -73.57548, 45.667951, 0.0 ] } },
{ "type": "Feature", "properties": { "stop_id": [ "A", "O", "U", "T", "1", "8", "4", "2", "4", "3", "3", ",", "J", "U", "I", "N", "1", "8", "4", "2", "4", "3", "3" ], "stop_code": [ "4", "2", "4", "3", "3" ], "stop_name": "Montée Montrougeau \/ Gilles", "stop_lon": -73.81593, "stop_lat": 45.581802, "location_type": 0, "stop_display": 0, "stop_abribus": 0 }, "geometry": { "type": "Point", "coordinates": [ -73.81593, 45.581802, 0.0 ] } },
{ "type": "Feature", "properties": { "stop_id": [ "A", "O", "U", "T", "1", "8", "4", "3", "0", "5", "6", ",", "J", "U", "I", "N", "1", "8", "4", "3", "0", "5", "6" ], "stop_code": [ "4", "3", "0", "5", "6" ], "stop_name": "Samson \/ Maurice", "stop_lon": -73.81546, "stop_lat": 45.525168, "location_type": 0, "stop_display": 0, "stop_abribus": 0 }, "geometry": { "type": "Point", "coordinates": [ -73.81546, 45.525168, 0.0 ] } },
{ "type": "Feature", "properties": { "stop_id": [ "J", "U", "I", "N", "1", "8", "4", "2", "0", "5", "6", ",", "A", "O", "U", "T", "1", "8", "4", "2", "0", "5", "6" ], "stop_code": [ "4", "2", "0", "5", "6" ], "stop_name": "Lévesque \/ 76e Avenue", "stop_lon": -73.73458, "stop_lat": 45.53588, "location_type": 0, "stop_display": 0, "stop_abribus": 1 }, "geometry": { "type": "Point", "coordinates": [ -73.73458, 45.53588, 0.0 ] } },
{ "type": "Feature", "properties": { "stop_id": [ "J", "U", "I", "N", "1", "8", "4", "2", "6", "1", "0", ",", "A", "O", "U", "T", "1", "8", "4", "2", "6", "1", "0" ], "stop_code": [ "4", "2", "6", "1", "0" ], "stop_name": "Des Prairies \/ Clermont", "stop_lon": -73.71316, "stop_lat": 45.543095, "location_type": 0, "stop_display": 0, "stop_abribus": 0 }, "geometry": { "type": "Point", "coordinates": [ -73.71316, 45.543095, 0.0 ] } },
{ "type": "Feature", "properties": { "stop_id": [ "A", "O", "U", "T", "1", "8", "4", "2", "5", "1", "4", ",", "J", "U", "I", "N", "1", "8", "4", "2", "5", "1", "4" ], "stop_code": [ "4", "2", "5", "1", "4" ], "stop_name": "Notre-Dame \/ 80e Avenue", "stop_lon": -73.74583, "stop_lat": 45.541748, "location_type": 0, "stop_display": 0, "stop_abribus": 1 }, "geometry": { "type": "Point", "coordinates": [ -73.74583, 45.541748, 0.0 ] } },
{ "type": "Feature", "properties": { "stop_id": [ "A", "O", "U", "T", "1", "8", "C", "P", "4", "8", "3", "6", "1", ",", "J", "U", "I", "N", "1", "8", "C", "P", "4", "8", "3", "6", "1" ], "stop_code": [ "4", "8", "3", "6", "1" ], "stop_name": "Métro Montmorency", "stop_lon": -73.72004, "stop_lat": 45.558768, "location_type": 0, "stop_display": 0, "stop_abribus": 0 }, "geometry": { "type": "Point", "coordinates": [ -73.72004, 45.558768, 0.0 ] } },
{ "type": "Feature", "properties": { "stop_id": [ "A", "O", "U", "T", "1", "8", "4", "2", "3", "1", "9", ",", "J", "U", "I", "N", "1", "8", "4", "2", "3", "1", "9" ], "stop_code": [ "4", "2", "3", "1", "9" ], "stop_name": "Des Mille-îles \/ Contant", "stop_lon": -73.56226, "stop_lat": 45.697777, "location_type": 0, "stop_display": 0, "stop_abribus": 0 }, "geometry": { "type": "Point", "coordinates": [ -73.56226, 45.697777, 0.0 ] } },
{ "type": "Feature", "properties": { "stop_id": [ "A", "O", "U", "T", "1", "8", "4", "1", "8", "3", "0", ",", "J", "U", "I", "N", "1", "8", "4", "1", "8", "3", "0" ], "stop_code": [ "4", "1", "8", "3", "0" ], "stop_name": "Des Laurentides \/ D'edimbourg", "stop_lon": -73.72024, "stop_lat": 45.595137, "location_type": 0, "stop_display": 0, "stop_abribus": 1 }, "geometry": { "type": "Point", "coordinates": [ -73.72024, 45.595137, 0.0 ] } },
{ "type": "Feature", "properties": { "stop_id": [ "J", "U", "I", "N", "1", "8", "4", "2", "5", "6", "8", ",", "A", "O", "U", "T", "1", "8", "4", "2", "5", "6", "8" ], "stop_code": [ "4", "2", "5", "6", "8" ], "stop_name": "Du Parc \/ François-Foucault", "stop_lon": -73.66276, "stop_lat": 45.605824, "location_type": 0, "stop_display": 0, "stop_abribus": 0 }, "geometry": { "type": "Point", "coordinates": [ -73.66276, 45.605824, 0.0 ] } },
{ "type": "Feature", "properties": { "stop_id": [ "J", "U", "I", "N", "1", "8", "4", "1", "9", "4", "9", ",", "A", "O", "U", "T", "1", "8", "4", "1", "9", "4", "9" ], "stop_code": [ "4", "1", "9", "4", "9" ], "stop_name": "Le Corbusier \/ Berlier", "stop_lon": -73.7479, "stop_lat": 45.581345, "location_type": 0, "stop_display": 0, "stop_abribus": 1 }, "geometry": { "type": "Point", "coordinates": [ -73.7479, 45.581345, 0.0 ] } },
{ "type": "Feature", "properties": { "stop_id": [ "J", "U", "I", "N", "1", "8", "4", "2", "9", "8", "2", ",", "A", "O", "U", "T", "1", "8", "4", "2", "9", "8", "2", ",", "J", "U", "I", "N", "1", "8", "C", "P", "4", "2", "9", "8", "2", ",", "A", "O", "U", "T", "1", "8", "C", "P", "4", "2", "9", "8", "2" ], "stop_code": [ "4", "2", "9", "8", "2" ], "stop_name": "Sainte-Rose \/ Autoroute 15", "stop_lon": -73.80694, "stop_lat": 45.598995, "location_type": 0, "stop_display": 0, "stop_abribus": 0 }, "geometry": { "type": "Point", "coordinates": [ -73.80694, 45.598995, 0.0 ] } },
{ "type": "Feature", "properties": { "stop_id": [ "A", "O", "U", "T", "1", "8", "4", "2", "3", "8", "0", ",", "J", "U", "I", "N", "1", "8", "4", "2", "3", "8", "0" ], "stop_code": [ "4", "2", "3", "8", "0" ], "stop_name": "Des Mille-îles \/ Face Au 6300", "stop_lon": -73.63603, "stop_lat": 45.687248, "location_type": 0, "stop_display": 0, "stop_abribus": 0 }, "geometry": { "type": "Point", "coordinates": [ -73.63603, 45.687248, 0.0 ] } },
{ "type": "Feature", "properties": { "stop_id": [ "J", "U", "I", "N", "1", "8", "4", "2", "8", "5", "3", ",", "A", "O", "U", "T", "1", "8", "4", "2", "8", "5", "3" ], "stop_code": [ "4", "2", "8", "5", "3" ], "stop_name": "Saint-Martin \/ Vallières", "stop_lon": -73.71046, "stop_lat": 45.578482, "location_type": 0, "stop_display": 0, "stop_abribus": 1 }, "geometry": { "type": "Point", "coordinates": [ -73.71046, 45.578482, 0.0 ] } },
{ "type": "Feature", "properties": { "stop_id": [ "J", "U", "I", "N", "1", "8", "4", "2", "4", "1", "3", ",", "A", "O", "U", "T", "1", "8", "4", "2", "4", "1", "3" ], "stop_code": [ "4", "2", "4", "1", "3" ], "stop_name": "Mirelle \/ Lévesque", "stop_lon": -73.57943, "stop_lat": 45.663294, "location_type": 0, "stop_display": 0, "stop_abribus": 0 }, "geometry": { "type": "Point", "coordinates": [ -73.57943, 45.663294, 0.0 ] } },
{ "type": "Feature", "properties": { "stop_id": [ "A", "O", "U", "T", "1", "8", "4", "6", "3", "8", "1", ",", "J", "U", "I", "N", "1", "8", "4", "6", "3", "8", "1" ], "stop_code": [ "4", "6", "3", "8", "1" ], "stop_name": "De L'empereur \/ Du Sénateur", "stop_lon": -73.68213, "stop_lat": 45.625645, "location_type": 0, "stop_display": 0, "stop_abribus": 0 }, "geometry": { "type": "Point", "coordinates": [ -73.68213, 45.625645, 0.0 ] } },
{ "type": "Feature", "properties": { "stop_id": [ "J", "U", "I", "N", "1", "8", "C", "P", "4", "6", "2", "3", "8", ",", "A", "O", "U", "T", "1", "8", "C", "P", "4", "6", "2", "3", "8" ], "stop_code": [ "4", "6", "2", "3", "8" ], "stop_name": "Saint-Martin \/ Des Pivoines", "stop_lon": -73.82301, "stop_lat": 45.533299, "location_type": 0, "stop_display": 0, "stop_abribus": 0 }, "geometry": { "type": "Point", "coordinates": [ -73.82301, 45.533299, 0.0 ] } },
{ "type": "Feature", "properties": { "stop_id": [ "J", "U", "I", "N", "1", "8", "4", "3", "1", "0", "2", ",", "A", "O", "U", "T", "1", "8", "4", "3", "1", "0", "2" ], "stop_code": [ "4", "3", "1", "0", "2" ], "stop_name": "Séguin \/ Cousteau", "stop_lon": -73.84456, "stop_lat": 45.570273, "location_type": 0, "stop_display": 0, "stop_abribus": 0 }, "geometry": { "type": "Point", "coordinates": [ -73.84456, 45.570273, 0.0 ] } },
{ "type": "Feature", "properties": { "stop_id": [ "A", "O", "U", "T", "1", "8", "4", "1", "8", "7", "5", ",", "J", "U", "I", "N", "1", "8", "4", "1", "8", "7", "5" ], "stop_code": [ "4", "1", "8", "7", "5" ], "stop_name": "Des Laurentides \/ Saint-Saëns", "stop_lon": -73.75436, "stop_lat": 45.63716, "location_type": 0, "stop_display": 0, "stop_abribus": 0 }, "geometry": { "type": "Point", "coordinates": [ -73.75436, 45.63716, 0.0 ] } },
{ "type": "Feature", "properties": { "stop_id": [ "J", "U", "I", "N", "1", "8", "4", "1", "6", "7", "1", ",", "A", "O", "U", "T", "1", "8", "4", "1", "6", "7", "1" ], "stop_code": [ "4", "1", "6", "7", "1" ], "stop_name": "Gilles \/ Camille", "stop_lon": -73.79907, "stop_lat": 45.588488, "location_type": 0, "stop_display": 0, "stop_abribus": 0 }, "geometry": { "type": "Point", "coordinates": [ -73.79907, 45.588488, 0.0 ] } },
{ "type": "Feature", "properties": { "stop_id": [ "A", "O", "U", "T", "1", "8", "4", "2", "0", "8", "0", ",", "J", "U", "I", "N", "1", "8", "4", "2", "0", "8", "0" ], "stop_code": [ "4", "2", "0", "8", "0" ], "stop_name": "Lévesque \/ Jeanne-Leber", "stop_lon": -73.66504, "stop_lat": 45.584044, "location_type": 0, "stop_display": 0, "stop_abribus": 0 }, "geometry": { "type": "Point", "coordinates": [ -73.66504, 45.584044, 0.0 ] } },
{ "type": "Feature", "properties": { "stop_id": [ "A", "O", "U", "T", "1", "8", "4", "2", "3", "2", "8", ",", "J", "U", "I", "N", "1", "8", "4", "2", "3", "2", "8" ], "stop_code": [ "4", "2", "3", "2", "8" ], "stop_name": "Des Mille-îles \/ Face à La Marina Bobino", "stop_lon": -73.5722, "stop_lat": 45.695135, "location_type": 0, "stop_display": 0, "stop_abribus": 0 }, "geometry": { "type": "Point", "coordinates": [ -73.5722, 45.695135, 0.0 ] } },
{ "type": "Feature", "properties": { "stop_id": [ "J", "U", "I", "N", "1", "8", "4", "2", "4", "0", "8", ",", "A", "O", "U", "T", "1", "8", "4", "2", "4", "0", "8" ], "stop_code": [ "4", "2", "4", "0", "8" ], "stop_name": "Des Mille-îles \/ Des Ormes", "stop_lon": -73.68501, "stop_lat": 45.683751, "location_type": 0, "stop_display": 0, "stop_abribus": 0 }, "geometry": { "type": "Point", "coordinates": [ -73.68501, 45.683751, 0.0 ] } },
{ "type": "Feature", "properties": { "stop_id": [ "A", "O", "U", "T", "1", "8", "4", "2", "2", "4", "8", ",", "J", "U", "I", "N", "1", "8", "4", "2", "2", "4", "8" ], "stop_code": [ "4", "2", "2", "4", "8" ], "stop_name": "Michelin \/ Guillet", "stop_lon": -73.7503, "stop_lat": 45.588506, "location_type": 0, "stop_display": 0, "stop_abribus": 0 }, "geometry": { "type": "Point", "coordinates": [ -73.7503, 45.588506, 0.0 ] } },
{ "type": "Feature", "properties": { "stop_id": [ "A", "O", "U", "T", "1", "8", "4", "1", "6", "7", "9", ",", "J", "U", "I", "N", "1", "8", "4", "1", "6", "7", "9" ], "stop_code": [ "4", "1", "6", "7", "9" ], "stop_name": "Gilles \/ Christiane", "stop_lon": -73.81318, "stop_lat": 45.583744, "location_type": 0, "stop_display": 0, "stop_abribus": 0 }, "geometry": { "type": "Point", "coordinates": [ -73.81318, 45.583744, 0.0 ] } },
{ "type": "Feature", "properties": { "stop_id": [ "J", "U", "I", "N", "1", "8", "4", "1", "3", "6", "0", ",", "A", "O", "U", "T", "1", "8", "4", "1", "3", "6", "0" ], "stop_code": [ "4", "1", "3", "6", "0" ], "stop_name": "De La Concorde \/ Deauville", "stop_lon": -73.71515, "stop_lat": 45.558146, "location_type": 0, "stop_display": 0, "stop_abribus": 0 }, "geometry": { "type": "Point", "coordinates": [ -73.71515, 45.558146, 0.0 ] } },
{ "type": "Feature", "properties": { "stop_id": [ "A", "O", "U", "T", "1", "8", "4", "1", "1", "6", "5", ",", "J", "U", "I", "N", "1", "8", "4", "1", "1", "6", "5" ], "stop_code": [ "4", "1", "1", "6", "5" ], "stop_name": "Du Bord-De-L'eau \/ De La Capricieuse", "stop_lon": -73.80354, "stop_lat": 45.518883, "location_type": 0, "stop_display": 0, "stop_abribus": 0 }, "geometry": { "type": "Point", "coordinates": [ -73.80354, 45.518883, 0.0 ] } },
{ "type": "Feature", "properties": { "stop_id": [ "J", "U", "I", "N", "1", "8", "4", "2", "0", "3", "2", ",", "A", "O", "U", "T", "1", "8", "4", "2", "0", "3", "2" ], "stop_code": [ "4", "2", "0", "3", "2" ], "stop_name": "Lévesque \/ Orbach", "stop_lon": -73.55262, "stop_lat": 45.678104, "location_type": 0, "stop_display": 0, "stop_abribus": 0 }, "geometry": { "type": "Point", "coordinates": [ -73.55262, 45.678104, 0.0 ] } },
{ "type": "Feature", "properties": { "stop_id": [ "A", "O", "U", "T", "1", "8", "4", "6", "4", "1", "1", ",", "J", "U", "I", "N", "1", "8", "4", "6", "4", "1", "1" ], "stop_code": [ "4", "6", "4", "1", "1" ], "stop_name": "Saint-Elzéar \/ Alfred-De Musset", "stop_lon": -73.76716, "stop_lat": 45.572892, "location_type": 0, "stop_display": 0, "stop_abribus": 0 }, "geometry": { "type": "Point", "coordinates": [ -73.76716, 45.572892, 0.0 ] } },
{ "type": "Feature", "properties": { "stop_id": [ "J", "U", "I", "N", "1", "8", "4", "3", "0", "2", "7", ",", "A", "O", "U", "T", "1", "8", "4", "3", "0", "2", "7" ], "stop_code": [ "4", "3", "0", "2", "7" ], "stop_name": "Samson \/ Fouquet", "stop_lon": -73.79429, "stop_lat": 45.521688, "location_type": 0, "stop_display": 0, "stop_abribus": 0 }, "geometry": { "type": "Point", "coordinates": [ -73.79429, 45.521688, 0.0 ] } },
{ "type": "Feature", "properties": { "stop_id": [ "A", "O", "U", "T", "1", "8", "4", "1", "3", "3", "4", ",", "J", "U", "I", "N", "1", "8", "4", "1", "3", "3", "4" ], "stop_code": [ "4", "1", "3", "3", "4" ], "stop_name": "De La Concorde \/ 6e Avenue", "stop_lon": -73.69678, "stop_lat": 45.567681, "location_type": 0, "stop_display": 0, "stop_abribus": 0 }, "geometry": { "type": "Point", "coordinates": [ -73.69678, 45.567681, 0.0 ] } },
{ "type": "Feature", "properties": { "stop_id": [ "J", "U", "I", "N", "1", "8", "4", "3", "0", "0", "3", ",", "A", "O", "U", "T", "1", "8", "4", "3", "0", "0", "3" ], "stop_code": [ "4", "3", "0", "0", "3" ], "stop_name": "Sainte-Rose \/ Hotte", "stop_lon": -73.78573, "stop_lat": 45.614617, "location_type": 0, "stop_display": 0, "stop_abribus": 0 }, "geometry": { "type": "Point", "coordinates": [ -73.78573, 45.614617, 0.0 ] } },
{ "type": "Feature", "properties": { "stop_id": [ "J", "U", "I", "N", "1", "8", "4", "1", "9", "9", "9", ",", "A", "O", "U", "T", "1", "8", "4", "1", "9", "9", "9" ], "stop_code": [ "4", "1", "9", "9", "9" ], "stop_name": "Lévesque \/ Du Cresson", "stop_lon": -73.59394, "stop_lat": 45.657003, "location_type": 0, "stop_display": 0, "stop_abribus": 0 }, "geometry": { "type": "Point", "coordinates": [ -73.59394, 45.657003, 0.0 ] } },
{ "type": "Feature", "properties": { "stop_id": [ "A", "O", "U", "T", "1", "8", "4", "3", "0", "4", "1", ",", "J", "U", "I", "N", "1", "8", "4", "3", "0", "4", "1" ], "stop_code": [ "4", "3", "0", "4", "1" ], "stop_name": "Samson \/ Carleton", "stop_lon": -73.76973, "stop_lat": 45.526158, "location_type": 0, "stop_display": 0, "stop_abribus": 0 }, "geometry": { "type": "Point", "coordinates": [ -73.76973, 45.526158, 0.0 ] } },
{ "type": "Feature", "properties": { "stop_id": [ "J", "U", "I", "N", "1", "8", "4", "1", "8", "7", "1", ",", "A", "O", "U", "T", "1", "8", "4", "1", "8", "7", "1" ], "stop_code": [ "4", "1", "8", "7", "1" ], "stop_name": "Des Laurentides \/ Sand", "stop_lon": -73.75352, "stop_lat": 45.634408, "location_type": 0, "stop_display": 0, "stop_abribus": 0 }, "geometry": { "type": "Point", "coordinates": [ -73.75352, 45.634408, 0.0 ] } },
{ "type": "Feature", "properties": { "stop_id": [ "J", "U", "I", "N", "1", "8", "C", "P", "4", "5", "0", "1", "6", ",", "A", "O", "U", "T", "1", "8", "C", "P", "4", "5", "0", "1", "6" ], "stop_code": [ "4", "5", "0", "1", "6" ], "stop_name": "Bellerose \/ Des Laurentides", "stop_lon": -73.73507, "stop_lat": 45.611466, "location_type": 0, "stop_display": 0, "stop_abribus": 1 }, "geometry": { "type": "Point", "coordinates": [ -73.73507, 45.611466, 0.0 ] } },
{ "type": "Feature", "properties": { "stop_id": [ "J", "U", "I", "N", "1", "8", "C", "P", "4", "3", "2", "0", "5", ",", "A", "O", "U", "T", "1", "8", "C", "P", "4", "3", "2", "0", "5" ], "stop_code": [ "4", "3", "2", "0", "5" ], "stop_name": "Tracy \/ Lesage", "stop_lon": -73.66517, "stop_lat": 45.601502, "location_type": 0, "stop_display": 0, "stop_abribus": 0 }, "geometry": { "type": "Point", "coordinates": [ -73.66517, 45.601502, 0.0 ] } },
{ "type": "Feature", "properties": { "stop_id": [ "A", "O", "U", "T", "1", "8", "4", "1", "9", "4", "4", ",", "J", "U", "I", "N", "1", "8", "4", "1", "9", "4", "4" ], "stop_code": [ "4", "1", "9", "4", "4" ], "stop_name": "Le Corbusier \/ Cunard", "stop_lon": -73.7431, "stop_lat": 45.576432, "location_type": 0, "stop_display": 0, "stop_abribus": 1 }, "geometry": { "type": "Point", "coordinates": [ -73.7431, 45.576432, 0.0 ] } },
{ "type": "Feature", "properties": { "stop_id": [ "J", "U", "I", "N", "1", "8", "4", "2", "0", "3", "0", ",", "A", "O", "U", "T", "1", "8", "4", "2", "0", "3", "0" ], "stop_code": [ "4", "2", "0", "3", "0" ], "stop_name": "Lévesque \/ Face Au 9410", "stop_lon": -73.55509, "stop_lat": 45.67686, "location_type": 0, "stop_display": 0, "stop_abribus": 0 }, "geometry": { "type": "Point", "coordinates": [ -73.55509, 45.67686, 0.0 ] } },
{ "type": "Feature", "properties": { "stop_id": [ "A", "O", "U", "T", "1", "8", "4", "2", "4", "9", "6", ",", "J", "U", "I", "N", "1", "8", "4", "2", "4", "9", "6" ], "stop_code": [ "4", "2", "4", "9", "6" ], "stop_name": "Notre-Dame \/ Face Au 4540", "stop_lon": -73.76256, "stop_lat": 45.53672, "location_type": 0, "stop_display": 0, "stop_abribus": 1 },